[
  {
    "geometry": "POINT (-79.3334875646 43.6694619893)",
    "name": "Parent Resources",
    "street": "1117 Gerrard St E",
    "suite": "NULL",
    "postalcode": "M4M1Z9",
    "phone": "416-463-5399",
    "website": "NULL",
    "major_intersection": "Gerrard St E - Greenwood Ave",
    "riding": "Toronto Danforth",
    "site": "US",
    "site_description": "Unique Satellite Site",
    "agency_type": 4,
    "agency_description": "Satellite Site",
    "x": 318212.376,
    "y": 4836403.346,
    "latitude": 43.6695,
    "longitude": -79.3335
  },
  {
    "geometry": "POINT (-79.3517386373 43.6658615283)",
    "name": "S.E.A.S. Centre - East Chinatown Centre",
    "street": "606 Gerrard St E",
    "suite": "NULL",
    "postalcode": "M4M1Y2",
    "phone": "416-466-8842",
    "website": "NULL",
    "major_intersection": "Gerrard St E - Broadview Ave",
    "riding": "Toronto Danforth",
    "site": "OS",
    "site_description": "OEYC Satellite Site",
    "agency_type": 4,
    "agency_description": "Satellite Site",
    "x": 316741.327,
    "y": 4836000.552,
    "latitude": 43.6659,
    "longitude": -79.3517
  },
  {
    "geometry": "POINT (-79.3475796191 43.6591955401)",
    "name": "South Riverdale Child-Parent Centre",
    "street": "765 Queen St E",
    "suite": "NULL",
    "postalcode": "M4M1H3",
    "phone": "416-469-3776",
    "website": "NULL",
    "major_intersection": "Queen St E - Broadview Ave",
    "riding": "Toronto Danforth",
    "site": "US",
    "site_description": "Unique Satellite Site",
    "agency_type": 4,
    "agency_description": "Satellite Site",
    "x": 317078.087,
    "y": 4835260.613,
    "latitude": 43.6592,
    "longitude": -79.3476
  },
  {
    "geometry": "POINT (-79.4175895075 43.6469074879)",
    "name": "College Montrose Children's Place",
    "street": "180 Shaw St",
    "suite": "NULL",
    "postalcode": "M6J2W5",
    "phone": "416-532-8100",
    "website": "http://www.gov.on.ca/children/oeyc/en/location/Toronto/Trinity_-_Spadina/index.html",
    "major_intersection": "Shaw St - Queen St W",
    "riding": "Trinity-Spadina",
    "site": "MS",
    "site_description": "Main Site",
    "agency_type": 1,
    "agency_description": "Main Site",
    "x": 311432.743,
    "y": 4833887.434,
    "latitude": 43.6469,
    "longitude": -79.4176
  },
  {
    "geometry": "POINT (-79.3988823598 43.6515361294)",
    "name": "Alexandra Park Community Centre",
    "street": "105 Grange Crt",
    "suite": "NULL",
    "postalcode": "M5T2J6",
    "phone": "416-603-9603",
    "website": "NULL",
    "major_intersection": "Dundas St W - Spadina Rd",
    "riding": "Trinity-Spadina",
    "site": "US",
    "site_description": "Unique Satellite Site",
    "agency_type": 4,
    "agency_description": "Satellite Site",
    "x": 312941.219,
    "y": 4834403.34,
    "latitude": 43.6515,
    "longitude": -79.3989
  },
  {
    "geometry": "POINT (-79.3985944374 43.6564676356)",
    "name": "Cecil Community Centre Family Resource Program",
    "street": "58 Cecil St",
    "suite": "NULL",
    "postalcode": "M5T1N6",
    "phone": "416-392-1090",
    "website": "NULL",
    "major_intersection": "College St - Spadina Ave",
    "riding": "Trinity-Spadina",
    "site": "OS",
    "site_description": "OEYC Satellite Site",
    "agency_type": 4,
    "agency_description": "Satellite Site",
    "x": 312963.763,
    "y": 4834951.246,
    "latitude": 43.6565,
    "longitude": -79.3986
  },
  {
    "geometry": "POINT (-79.4048971309 43.651794287)",
    "name": "Scadding Court Community Centre",
    "street": "707 Dundas St W",
    "suite": "NULL",
    "postalcode": "M5T2W6",
    "phone": "416-392-0335",
    "website": "NULL",
    "major_intersection": "Dundas St W - Bathurst St",
    "riding": "Trinity-Spadina",
    "site": "US",
    "site_description": "Unique Satellite Site",
    "agency_type": 4,
    "agency_description": "Satellite Site",
    "x": 312455.994,
    "y": 4834431.455,
    "latitude": 43.6518,
    "longitude": -79.4049
  },
  {
    "geometry": "POINT (-79.415682488 43.6714185741)",
    "name": "St. Albans Boys and Girls Club",
    "street": "843 Palmerston Ave",
    "suite": "NULL",
    "postalcode": "M6G2R8",
    "phone": "416-534-8461",
    "website": "NULL",
    "major_intersection": "Dupont St - Bathurst St",
    "riding": "Trinity-Spadina",
    "site": "OS",
    "site_description": "OEYC Satellite Site",
    "agency_type": 4,
    "agency_description": "Satellite Site",
    "x": 311583.75,
    "y": 4836610.717,
    "latitude": 43.6714,
    "longitude": -79.4157
  },
  {
    "geometry": "POINT (-79.3988609479 43.6534387738)",
    "name": "Toronto Cross Cultural Community Services Association (TCCSA)",
    "street": "310 Spadina Ave",
    "suite": "Suite 301",
    "postalcode": "M5T2E7",
    "phone": "416-977-4026",
    "website": "NULL",
    "major_intersection": "Dundas St W - Spadina Rd",
    "riding": "Trinity-Spadina",
    "site": "OS",
    "site_description": "OEYC Satellite Site",
    "agency_type": 4,
    "agency_description": "Satellite Site",
    "x": 312942.691,
    "y": 4834614.714,
    "latitude": 43.6534,
    "longitude": -79.3989
  },
  {
    "geometry": "POINT (-79.3580822185 43.7989340433)",
    "name": "Adventure Place",
    "street": "155 McNicoll Ave",
    "suite": "Rm 106",
    "postalcode": "M2H2C1",
    "phone": "416-494-1579",
    "website": "http://www.gov.on.ca/children/oeyc/en/location/Toronto/Toronto-Willowdale/index.html",
    "major_intersection": "McNicoll Ave - Don Mills Rd",
    "riding": "Willowdale",
    "site": "MS",
    "site_description": "Main Site",
    "agency_type": 1,
    "agency_description": "Main Site",
    "x": 316204.571,
    "y": 4850783.427,
    "latitude": 43.7989,
    "longitude": -79.3581
  },
  {
    "geometry": "POINT (-79.4700872989 43.6810721434)",
    "name": "Macaulay Child Development Centre",
    "street": "48 Regent St",
    "suite": "NULL",
    "postalcode": "M6N3N9",
    "phone": "416-653-3270",
    "website": "http://www.gov.on.ca/children/oeyc/en/location/Toronto/YorkSouthWeston/index.html",
    "major_intersection": "Rogers Rd - Keele",
    "riding": "York South-Weston",
    "site": "MS",
    "site_description": "Main Site",
    "agency_type": 1,
    "agency_description": "Main Site",
    "x": 307196.17,
    "y": 4837680.21,
    "latitude": 43.6811,
    "longitude": -79.4701
  },
  {
    "geometry": "POINT (-79.4872895867 43.6844281201)",
    "name": "Dennis Avenue Community School",
    "street": "17 Dennis Ave",
    "suite": "NULL",
    "postalcode": "M6N2T7",
    "phone": "416-394-2311",
    "website": "NULL",
    "major_intersection": "Eglinton Ave W - Weston Rd",
    "riding": "York South-Weston",
    "site": "OS",
    "site_description": "OEYC Satellite Site",
    "agency_type": 4,
    "agency_description": "Satellite Site",
    "x": 305809.14,
    "y": 4838052.723,
    "latitude": 43.6844,
    "longitude": -79.4873
  },
  {
    "geometry": "POINT (-79.503841984 43.7167302301)",
    "name": "Falstaff Community Centre",
    "street": "50 Falstaff Ave",
    "suite": "NULL",
    "postalcode": "M6L2C7",
    "phone": "c/o Main Site 416-653-3270",
    "website": "NULL",
    "major_intersection": "Hwy 401 - Jane St",
    "riding": "York South-Weston",
    "site": "OS",
    "site_description": "OEYC Satellite Site",
    "agency_type": 4,
    "agency_description": "Satellite Site",
    "x": 304474.918,
    "y": 4841641.274,
    "latitude": 43.7167,
    "longitude": -79.5038
  },
  {
    "geometry": "POINT (-79.501916107 43.698383345)",
    "name": "Jane Street Hub",
    "street": "1541 Jane St",
    "suite": "NULL",
    "postalcode": "M9N2R3",
    "phone": "416-645-7575",
    "website": "NULL",
    "major_intersection": "Denison Rd E - Jane St",
    "riding": "York South-Weston",
    "site": "OS",
    "site_description": "OEYC Satellite Site",
    "agency_type": 4,
    "agency_description": "Satellite Site",
    "x": 304629.749,
    "y": 4839604.012,
    "latitude": 43.6984,
    "longitude": -79.5019
  },
  {
    "geometry": "POINT (-79.4911300399 43.6692599656)",
    "name": "Syme Woolner Neighbourhood and Family Centre",
    "street": "69 Pritchard Ave",
    "suite": "NULL",
    "postalcode": "M6N1T6",
    "phone": "416-767-2186",
    "website": "NULL",
    "major_intersection": "St Clair Ave W - Jane St",
    "riding": "York South-Weston",
    "site": "US",
    "site_description": "Unique Satellite Site",
    "agency_type": 4,
    "agency_description": "Satellite Site",
    "x": 305499.644,
    "y": 4836367.588,
    "latitude": 43.6693,
    "longitude": -79.4911
  },
  {
    "geometry": "POINT (-79.5152292852 43.6991400934)",
    "name": "Weston Lawrence Site",
    "street": "5 Bellevue Cres",
    "suite": "1st Floor",
    "postalcode": "M9N1G5",
    "phone": "c/o Main Site 416-653-3270",
    "website": "NULL",
    "major_intersection": "Lawrence Ave W - Weston Rd",
    "riding": "York South-Weston",
    "site": "OS",
    "site_description": "OEYC Satellite Site",
    "agency_type": 4,
    "agency_description": "Satellite Site",
    "x": 303556.925,
    "y": 4839687.3,
    "latitude": 43.6991,
    "longitude": -79.5152
  },
  {
    "geometry": "POINT (-79.5171379694 43.7568471664)",
    "name": "Jane Finch Community and Family Centre",
    "street": "1911 Finch Ave W",
    "suite": "NULL",
    "postalcode": "M3N2V2",
    "phone": "416-663-2733",
    "website": "http://www.gov.on.ca/children/oeyc/en/location/Toronto/YorkWest/index.html",
    "major_intersection": "Finch Ave W - Jane St",
    "riding": "York West",
    "site": "MS",
    "site_description": "Main Site",
    "agency_type": 1,
    "agency_description": "Main Site",
    "x": 303404.558,
    "y": 4846098.169,
    "latitude": 43.7568,
    "longitude": -79.5171
  },
  {
    "geometry": "POINT (-79.5125311905 43.7209712989)",
    "name": "Black Creek Library",
    "street": "1700 Wilson Ave",
    "suite": "NULL",
    "postalcode": "M3L1B2",
    "phone": "416-243-5480",
    "website": "NULL",
    "major_intersection": "Hwy 401 - Wilson Rd",
    "riding": "York West",
    "site": "OS",
    "site_description": "OEYC Satellite Site",
    "agency_type": 4,
    "agency_description": "Satellite Site",
    "x": 303774.834,
    "y": 4842112.508,
    "latitude": 43.721,
    "longitude": -79.5125
  },
  {
    "geometry": "POINT (-79.5088771047 43.7604567438)",
    "name": "Tobermory",
    "street": "15 Tobermory Drive",
    "suite": "NULL",
    "postalcode": "M3N2R5",
    "phone": "416-663-2733 ext 253",
    "website": "NULL",
    "major_intersection": "Finch Ave W - Driftwood Ave",
    "riding": "York West",
    "site": "OS",
    "site_description": "OEYC Satellite Site",
    "agency_type": 4,
    "agency_description": "Satellite Site",
    "x": 304069.821,
    "y": 4846499.065,
    "latitude": 43.7605,
    "longitude": -79.5089
  },
  {
    "geometry": "POINT (-79.5397370232 43.7388355156)",
    "name": "Weston Family Resource Centre",
    "street": "3226 Weston Rd",
    "suite": "NULL",
    "postalcode": "M9M2T7",
    "phone": "416-746-0441",
    "website": "NULL",
    "major_intersection": "Weston Rd - Sheppard Ave W",
    "riding": "York West",
    "site": "OS",
    "site_description": "OEYC Satellite Site",
    "agency_type": 4,
    "agency_description": "Satellite Site",
    "x": 301583.776,
    "y": 4844097.823,
    "latitude": 43.7388,
    "longitude": -79.5397
  },
  {
    "geometry": "POINT (-79.3942304331 43.6905267367)",
    "name": "Yorkminister Park Baptist Church",
    "street": "1585 Yonge St",
    "suite": "NULL",
    "postalcode": "M4T1Z9",
    "phone": "416-920-3515",
    "website": "NULL",
    "major_intersection": "St Clair Ave E - Yonge St",
    "riding": "St. Paul's",
    "site": "OS",
    "site_description": "OEYC Satellite Site",
    "agency_type": 4,
    "agency_description": "Satellite Site",
    "x": 313311.001,
    "y": 4838735.525,
    "latitude": 43.6905,
    "longitude": -79.3942
  },
  {
    "geometry": "POINT (-79.3617374176 43.6554975216)",
    "name": "East York/East Toronto Family Resources",
    "street": "80 Sackville St",
    "suite": "Room 106",
    "postalcode": "M5A3E5",
    "phone": "647-258-9791",
    "website": "http://www.gov.on.ca/children/oeyc/en/location/Toronto/Toronto_Centre_-_Rosedale/index.",
    "major_intersection": "Queen St E - Parliament St",
    "riding": "Toronto Centre-Rosedale",
    "site": "MS",
    "site_description": "Main Site",
    "agency_type": 1,
    "agency_description": "Main Site",
    "x": 315936.842,
    "y": 4834847.796,
    "latitude": 43.6555,
    "longitude": -79.3617
  },
  {
    "geometry": "POINT (-79.364272448 43.658595115)",
    "name": "Regent Park Community Health Centre - Parents for Better Beg",
    "street": "38 Regent St",
    "suite": "Upper Level",
    "postalcode": "M5A3N7",
    "phone": "416-362-0805 ext 230",
    "website": "NULL",
    "major_intersection": "Dundas St E - Parliament St",
    "riding": "Toronto Centre-Rosedale",
    "site": "US",
    "site_description": "Unique Satellite Site",
    "agency_type": 4,
    "agency_description": "Satellite Site",
    "x": 315731.545,
    "y": 4835192.534,
    "latitude": 43.6586,
    "longitude": -79.3643
  },
  {
    "geometry": "POINT (-79.4668499733 43.6657585307)",
    "name": "Child Development Institute/West Neighbourhood House",
    "street": "2918 Dundas St W",
    "suite": "NULL",
    "postalcode": "M6P1Y8",
    "phone": "416-762-3700",
    "website": "http://www.gov.on.ca/children/oeyc/en/location/Toronto/Parkdale_-_High_Park/index.html",
    "major_intersection": "Dundas St W - Keele St",
    "riding": "Parkdale-High Park",
    "site": "MS",
    "site_description": "Main Site",
    "agency_type": 1,
    "agency_description": "Main Site",
    "x": 307457.835,
    "y": 4835979.062,
    "latitude": 43.6658,
    "longitude": -79.4668
  },
  {
    "geometry": "POINT (-79.4404281929 43.6396209298)",
    "name": "Creating Together",
    "street": "1497 Queen St W",
    "suite": "NULL",
    "postalcode": "M6R1A3",
    "phone": "416 537-1004",
    "website": "NULL",
    "major_intersection": "Queen St W - Landsdowne Ave",
    "riding": "Parkdale High-Park",
    "site": "OS",
    "site_description": "OEYC Satellite Site",
    "agency_type": 4,
    "agency_description": "Satellite Site",
    "x": 309590.828,
    "y": 4833076.467,
    "latitude": 43.6396,
    "longitude": -79.4404
  },
  {
    "geometry": "POINT (-79.4673846716 43.656567829)",
    "name": "Family Fun",
    "street": "100 High Park Ave",
    "suite": "NULL",
    "postalcode": "M6P2S2",
    "phone": "c/o Main Site 416-762-3700",
    "website": "NULL",
    "major_intersection": "Bloor St W - Keele St",
    "riding": "Parkdale High-Park",
    "site": "OS",
    "site_description": "OEYC Satellite Site",
    "agency_type": 4,
    "agency_description": "Satellite Site",
    "x": 307415.157,
    "y": 4834958.018,
    "latitude": 43.6566,
    "longitude": -79.4674
  },
  {
    "geometry": "POINT (-79.4332336687 43.6407247064)",
    "name": "More Than Child's Play",
    "street": "220 Cowan Ave",
    "suite": "NULL",
    "postalcode": "M6K2N6",
    "phone": "416-516-3917",
    "website": "NULL",
    "major_intersection": "Queen St W - Landsdowne Ave",
    "riding": "Parkdale High-Park",
    "site": "OS",
    "site_description": "OEYC Satellite Site",
    "agency_type": 4,
    "agency_description": "Satellite Site",
    "x": 310171.205,
    "y": 4833199.5,
    "latitude": 43.6407,
    "longitude": -79.4332
  },
  {
    "geometry": "POINT (-79.4404281929 43.6396209298)",
    "name": "St. Christopher House- Community Parents Outreach Program",
    "street": "1497 Queen St W",
    "suite": 103,
    "postalcode": "M6R1A3",
    "phone": "416-536-1234 ext 21",
    "website": "NULL",
    "major_intersection": "Queen St W - Landsdowne Ave",
    "riding": "Parkdale High-Park",
    "site": "OS",
    "site_description": "OEYC Satellite Site",
    "agency_type": 4,
    "agency_description": "Satellite Site",
    "x": 309590.828,
    "y": 4833076.467,
    "latitude": 43.6396,
    "longitude": -79.4404
  },
  {
    "geometry": "POINT (-79.4778816997 43.6476583651)",
    "name": "Swansea Town Hall",
    "street": "95 Lavinia Ave",
    "suite": "2nd floor",
    "postalcode": "M6S3H9",
    "phone": "416-762-3700",
    "website": "NULL",
    "major_intersection": "Bloor St W - Runnymede Rd",
    "riding": "Parkdale-High Park",
    "site": "OS",
    "site_description": "OEYC Satellite Site",
    "agency_type": 4,
    "agency_description": "Satellite Site",
    "x": 306568.733,
    "y": 4833967.983,
    "latitude": 43.6477,
    "longitude": -79.4779
  },
  {
    "geometry": "POINT (-79.4992627432 43.6652744832)",
    "name": "Wheels Program - College Montrose Children's Place",
    "street": "3735 Dundas St W",
    "suite": "NULL",
    "postalcode": "M6S2T6",
    "phone": "416-532-9485",
    "website": "NULL",
    "major_intersection": "Dundas St W - Scarlett Rd",
    "riding": "Parkdale High-Park",
    "site": "OS",
    "site_description": "OEYC Satellite Site",
    "agency_type": 4,
    "agency_description": "Satellite Site",
    "x": 304843.771,
    "y": 4835924.809,
    "latitude": 43.6653,
    "longitude": -79.4993
  },
  {
    "geometry": "POINT (-79.1846621766 43.769354762)",
    "name": "East Scarborough Boys and Girls Club",
    "street": "4218 Lawrence Ave E",
    "suite": "Unit 15",
    "postalcode": "M1E4X9",
    "phone": "416-282-7284",
    "website": "http://www.gov.on.ca/children/oeyc/en/location/Toronto/Scarborough_East/index.html",
    "major_intersection": "Lawrence Ave E - Morningside Ave",
    "riding": "Scarborough East",
    "site": "MS",
    "site_description": "Main Site",
    "agency_type": 1,
    "agency_description": "Main Site",
    "x": 330171.729,
    "y": 4847535.591,
    "latitude": 43.7694,
    "longitude": -79.1847
  },
  {
    "geometry": "POINT (-79.262162924 43.72649371)",
    "name": "Corvette Family Resource Centre",
    "street": "30 Corvette Ave",
    "suite": "NULL",
    "postalcode": "M1K3G2",
    "phone": "416-396-5822",
    "website": "NULL",
    "major_intersection": "Eglinton Ave E - Kennedy Rd",
    "riding": "Scarborough East",
    "site": "OS",
    "site_description": "OEYC Satellite Site",
    "agency_type": 4,
    "agency_description": "Satellite Site",
    "x": 323945.959,
    "y": 4842753.227,
    "latitude": 43.7265,
    "longitude": -79.2622
  },
  {
    "geometry": "POINT (-79.1933416857 43.7574370569)",
    "name": "East Scarborough Boys and Girls Club",
    "street": "100 Galloway Rd",
    "suite": "NULL",
    "postalcode": "M1E1W7",
    "phone": "416-281-0262 ext 208",
    "website": "NULL",
    "major_intersection": "Kingston Rd - Galloway Rd",
    "riding": "Scarborough East",
    "site": "OS",
    "site_description": "OEYC Satellite Site",
    "agency_type": 4,
    "agency_description": "Satellite Site",
    "x": 329477.861,
    "y": 4846208.958,
    "latitude": 43.7574,
    "longitude": -79.1933
  },
  {
    "geometry": "POINT (-79.1752378239 43.7900692631)",
    "name": "Highland Creek Library",
    "street": "3550 Ellesmere Rd",
    "suite": "NULL",
    "postalcode": "M1C 4Y6",
    "phone": "416-282-7284",
    "website": "NULL",
    "major_intersection": "Ellesmere Rd - Meadowvale Rd",
    "riding": "Scarborough East",
    "site": "OS",
    "site_description": "OEYC Satellite Site",
    "agency_type": 4,
    "agency_description": "Satellite Site",
    "x": 330921.514,
    "y": 4849839.831,
    "latitude": 43.7901,
    "longitude": -79.1752
  },
  {
    "geometry": "POINT (-79.1944172425 43.7865043037)",
    "name": "Mornelle Family Resource Centre",
    "street": "110 Mornelle Crt",
    "suite": "NULL",
    "postalcode": "M1E4X2",
    "phone": "416-287-3578",
    "website": "NULL",
    "major_intersection": "Ellesmere Rd - Morningside Ave",
    "riding": "Scarborough East",
    "site": "OS",
    "site_description": "OEYC Satellite Site",
    "agency_type": 4,
    "agency_description": "Satellite Site",
    "x": 329379.42,
    "y": 4849437.971,
    "latitude": 43.7865,
    "longitude": -79.1944
  },
  {
    "geometry": "POINT (-79.1784470285 43.7698620372)",
    "name": "Morningside Library",
    "street": "4279 Lawrence Ave E",
    "suite": "NULL",
    "postalcode": "M1E 2S5",
    "phone": "416-282-7284",
    "website": "NULL",
    "major_intersection": "Lawerence Ave - Morningside Ave",
    "riding": "Scarborough East",
    "site": "OS",
    "site_description": "OEYC Satellite Site",
    "agency_type": 4,
    "agency_description": "Satellite Site",
    "x": 330671.896,
    "y": 4847593.84,
    "latitude": 43.7699,
    "longitude": -79.1784
  },
  {
    "geometry": "POINT (-79.140291245 43.779664586)",
    "name": "Port Union Library",
    "street": "5450 Lawrence Ave E",
    "suite": "NULL",
    "postalcode": "M1C3B2",
    "phone": "416-282-7284",
    "website": "NULL",
    "major_intersection": "Lawerence Ave - Port Union Road",
    "riding": "Scarborough East",
    "site": "OS",
    "site_description": "OEYC Satellite Site",
    "agency_type": 4,
    "agency_description": "Satellite Site",
    "x": 333738.755,
    "y": 4848696.362,
    "latitude": 43.7797,
    "longitude": -79.1403
  },
  {
    "geometry": "POINT (-79.2873753816 43.6911861169)",
    "name": "East York/East Toronto Family Resource",
    "street": "3079 Danforth Ave",
    "suite": "NULL",
    "postalcode": "M1L1A8",
    "phone": "416-686-3390",
    "website": "http://www.gov.on.ca/children/oeyc/en/location/Toronto/Beaches_-_East_York/index.html",
    "major_intersection": "Danforth Ave - Vitoria Park Ave",
    "riding": "Beaches-East York",
    "site": "MS",
    "site_description": "Main Site",
    "agency_type": 1,
    "agency_description": "Main Site",
    "x": 321924.799,
    "y": 4838825.208,
    "latitude": 43.6912,
    "longitude": -79.2874
  },
  {
    "geometry": "POINT (-79.3220021384 43.6662960034)",
    "name": "Applegrove Community Complex (Satellite)",
    "street": "60 Woodfield Rd",
    "suite": "NULL",
    "postalcode": "M4L2W6",
    "phone": "416-461-5043",
    "website": "NULL",
    "major_intersection": "Queen St E - Kingston Rd",
    "riding": "Beaches-East York",
    "site": "US",
    "site_description": "Unique Satellite Site",
    "agency_type": 4,
    "agency_description": "Satellite Site",
    "x": 319139.332,
    "y": 4836053.503,
    "latitude": 43.6663,
    "longitude": -79.322
  },
  {
    "geometry": "POINT (-79.3097961772 43.6683404753)",
    "name": "Applegrove The Edgewood Connection",
    "street": "1810 Queen St E",
    "suite": "NULL",
    "postalcode": "M4L3M8",
    "phone": "416-461-5043",
    "website": "NULL",
    "major_intersection": "Kingston Rd - Queen St E",
    "riding": "Beaches-East York",
    "site": "US",
    "site_description": "Unique Satellite Site",
    "agency_type": 4,
    "agency_description": "Satellite Site",
    "x": 320123.163,
    "y": 4836282.799,
    "latitude": 43.6683,
    "longitude": -79.3098
  },
  {
    "geometry": "POINT (-79.3006009366 43.6842881172)",
    "name": "Daycare Connection (Family Resource)",
    "street": "184 Main St",
    "suite": "NULL",
    "postalcode": "M4E1Z2",
    "phone": "416-690-0102",
    "website": "NULL",
    "major_intersection": "Gerrard St E - Main St",
    "riding": "Beaches-East York",
    "site": "US",
    "site_description": "Unique Satellite Site",
    "agency_type": 4,
    "agency_description": "Satellite Site",
    "x": 320860.446,
    "y": 4838056.272,
    "latitude": 43.6843,
    "longitude": -79.3006
  },
  {
    "geometry": "POINT (-79.3225159292 43.6856915884)",
    "name": "East End Children's Centre (Kimbourne)",
    "street": "200 Wolverleigh Blvd",
    "suite": "NULL",
    "postalcode": "M4C1S2",
    "phone": "416-469-0495",
    "website": "NULL",
    "major_intersection": "Danforth Ave - Coxwell Ave",
    "riding": "Beaches-East York",
    "site": "US",
    "site_description": "Unique Satellite Site",
    "agency_type": 4,
    "agency_description": "Satellite Site",
    "x": 319093.303,
    "y": 4838208.19,
    "latitude": 43.6857,
    "longitude": -79.3225
  },
  {
    "geometry": "POINT (-79.319965683 43.704536203)",
    "name": "East End Children's Centre-Presteign Heights United Church",
    "street": "2538 St. Clair Ave E",
    "suite": "NULL",
    "postalcode": "M4B3B4",
    "phone": "416-686-3390",
    "website": "NULL",
    "major_intersection": "St. Clair Ave E - O'Connor Dr",
    "riding": "Beaches-East York",
    "site": "US",
    "site_description": "Unique Satellite Site",
    "agency_type": 4,
    "agency_description": "Satellite Site",
    "x": 319294.143,
    "y": 4840303.215,
    "latitude": 43.7045,
    "longitude": -79.32
  },
  {
    "geometry": "POINT (-79.3018344557 43.6923874889)",
    "name": "East York East Toronto -The Parenting Room",
    "street": "101 Barrington Ave",
    "suite": "NULL",
    "postalcode": "M4C4Y9",
    "phone": "416-686-3390",
    "website": "NULL",
    "major_intersection": "Doncaster Ave - Main St",
    "riding": "Beaches-East York",
    "site": "SS",
    "site_description": "Seasonal Satellite Site",
    "agency_type": 4,
    "agency_description": "Satellite Site",
    "x": 320758.864,
    "y": 4838955.84,
    "latitude": 43.6924,
    "longitude": -79.3018
  },
  {
    "geometry": "POINT (-79.4023813872 43.6463916592)",
    "name": "Centre Francophone de Toronto",
    "street": "555 Richmond St W",
    "suite": "NULL",
    "postalcode": "M5V3B1",
    "phone": "416-922-2672",
    "website": "NULL",
    "major_intersection": "Adelaide St W - Bathurst St",
    "riding": "City-wide",
    "site": "MS",
    "site_description": "Main Site",
    "agency_type": 3,
    "agency_description": "City-wide Main Site",
    "x": 312659.663,
    "y": 4833831.424,
    "latitude": 43.6464,
    "longitude": -79.4024
  },
  {
    "geometry": "POINT (-79.384557612 43.6613419611)",
    "name": "Native Child and Family Services",
    "street": "30 College St",
    "suite": "Main Floor",
    "postalcode": "M5G1K2",
    "phone": "416-969-8510",
    "website": "http://www.gov.on.ca/children/oeyc/en/location/Toronto/Native_Child_and_Family_Services",
    "major_intersection": "College St - Yonge St",
    "riding": "City-wide",
    "site": "MS",
    "site_description": "Main Site",
    "agency_type": 3,
    "agency_description": "City-wide Main Site",
    "x": 314095.242,
    "y": 4835494.307,
    "latitude": 43.6613,
    "longitude": -79.3846
  },
  {
    "geometry": "POINT (-79.1951185023 43.7623254631)",
    "name": "Scarborough Child and Family Life Centre",
    "street": "156 Galloway Road",
    "suite": "NULL",
    "postalcode": "M1E1X2",
    "phone": "416-969-8510",
    "website": "NULL",
    "major_intersection": "Kingston Rd - Galloway Rd",
    "riding": "City-wide",
    "site": "OS",
    "site_description": "OEYC Satellite Site",
    "agency_type": 4,
    "agency_description": "Satellite Site",
    "x": 329332.79,
    "y": 4846751.509,
    "latitude": 43.7623,
    "longitude": -79.1951
  },
  {
    "geometry": "POINT (-79.4548618459 43.6709285965)",
    "name": "Davenport Perth Neighbourhood and Community Health Centre",
    "street": "1900 Davenport Rd",
    "suite": "NULL",
    "postalcode": "M6N1B7",
    "phone": "416-588-3755",
    "website": "http://www.gov.on.ca/children/oeyc/en/location/Toronto/Toronto-Davenport/index.html",
    "major_intersection": "Davenport Rd - Caledonia Park Rd",
    "riding": "Davenport",
    "site": "MS",
    "site_description": "Main Site",
    "agency_type": 1,
    "agency_description": "Main Site",
    "x": 308424.362,
    "y": 4836553.853,
    "latitude": 43.6709,
    "longitude": -79.4549
  },
  {
    "geometry": "POINT (-79.4555128516 43.6948548527)",
    "name": "Yorktown Child and Family Services",
    "street": "2010 Eglinton Ave W",
    "suite": "NULL",
    "postalcode": "M6E2K3",
    "phone": "416-394-2424 ext 237",
    "website": "NULL",
    "major_intersection": "Rogers Rd - Caledonia Rd",
    "riding": "Davenport",
    "site": "OS",
    "site_description": "OEYC Satellite Site",
    "agency_type": 4,
    "agency_description": "Satellite Site",
    "x": 308370.493,
    "y": 4839211.923,
    "latitude": 43.6949,
    "longitude": -79.4555
  },
  {
    "geometry": "POINT (-79.3278932698 43.7708779582)",
    "name": "Family Day Care Services",
    "street": "332 Consumers Rd",
    "suite": "NULL",
    "postalcode": "M2J1P8",
    "phone": "416-496-2601",
    "website": "http://www.gov.on.ca/children/oeyc/en/location/Toronto/Don_Valley_East/index.html",
    "major_intersection": "Sheppard Ave E - Victoria Park Ave",
    "riding": "Don Valley East",
    "site": "MS",
    "site_description": "Main Site",
    "agency_type": 1,
    "agency_description": "Main Site",
    "x": 318640.224,
    "y": 4847671.086,
    "latitude": 43.7709,
    "longitude": -79.3279
  },
  {
    "geometry": "POINT (-79.325904375 43.7595499187)",
    "name": "Brookbanks Library",
    "street": "210 Brookbanks Dr",
    "suite": "NULL",
    "postalcode": "M3A2T8",
    "phone": "416-395-5481",
    "website": "NULL",
    "major_intersection": "York Mills Road and Victoria Park Ave",
    "riding": "Don Valley East",
    "site": "SS",
    "site_description": "Seasonal Satellite Site",
    "agency_type": 4,
    "agency_description": "Satellite Site",
    "x": 318802.944,
    "y": 4846412.903,
    "latitude": 43.7595,
    "longitude": -79.3259
  },
  {
    "geometry": "POINT (-79.3407074848 43.7753760756)",
    "name": "Parkway Forest Satellite",
    "street": "121 Parkway Forest Dr",
    "suite": "NULL",
    "postalcode": "M2N6A3",
    "phone": "416-496-2601",
    "website": "NULL",
    "major_intersection": "Sheppard Ave E - Don Mills Rd",
    "riding": "Don Valley East",
    "site": "OS",
    "site_description": "OEYC Satellite Site",
    "agency_type": 4,
    "agency_description": "Satellite Site",
    "x": 317607.657,
    "y": 4848168.757,
    "latitude": 43.7754,
    "longitude": -79.3407
  },
  {
    "geometry": "POINT (-79.3128960494 43.7359799253)",
    "name": "Victoria Village Library",
    "street": "184 Sloane Ave",
    "suite": "NULL",
    "postalcode": "M4A2C4",
    "phone": "416-395-5951",
    "website": "NULL",
    "major_intersection": "Lawrence Ave E - Victoria Park",
    "riding": "Don Valley East",
    "site": "SS",
    "site_description": "Seasonal Satellite Site",
    "agency_type": 4,
    "agency_description": "Satellite Site",
    "x": 319856.307,
    "y": 4843796.708,
    "latitude": 43.736,
    "longitude": -79.3129
  },
  {
    "geometry": "POINT (-79.3462588972 43.7055467108)",
    "name": "Thorncliffe Neighbourhood Office",
    "street": "45 Overlea Blvd",
    "suite": "NULL",
    "postalcode": "M4H1C3",
    "phone": "416-421-8997 ext 22",
    "website": "http://www.gov.on.ca/children/oeyc/en/location/Toronto/Don_Valley_West/index.html",
    "major_intersection": "Overlea Blvd - Millwood Rd",
    "riding": "Don Valley West",
    "site": "MS",
    "site_description": "Main Site",
    "agency_type": 1,
    "agency_description": "Main Site",
    "x": 317175.075,
    "y": 4840410.202,
    "latitude": 43.7055,
    "longitude": -79.3463
  },
  {
    "geometry": "POINT (-79.3473852747 43.7388643425)",
    "name": "Donway Convenant United Church",
    "street": "230 The Donway W",
    "suite": "NULL",
    "postalcode": "M3B2V8",
    "phone": "416-421-8997",
    "website": "NULL",
    "major_intersection": "Lawrence Ave E - The Donway W",
    "riding": "Don Valley West",
    "site": "OS",
    "site_description": "OEYC Satellite Site",
    "agency_type": 4,
    "agency_description": "Satellite Site",
    "x": 317077.5,
    "y": 4844111.464,
    "latitude": 43.7389,
    "longitude": -79.3474
  },
  {
    "geometry": "POINT (-79.3266067041 43.7135393177)",
    "name": "Family Day",
    "street": "150 Grenoble Dr",
    "suite": "NULL",
    "postalcode": "M3C1E3",
    "phone": "416-429-6194",
    "website": "NULL",
    "major_intersection": "Gateway Blvd - Overlea Blvd - Don Mills Rd",
    "riding": "Don Valley West",
    "site": "OS",
    "site_description": "OEYC Satellite Site",
    "agency_type": 4,
    "agency_description": "Satellite Site",
    "x": 318757.099,
    "y": 4841301.317,
    "latitude": 43.7135,
    "longitude": -79.3266
  },
  {
    "geometry": "POINT (-79.3805264909 43.7347500305)",
    "name": "The Bob Rumball Centre for the Deaf",
    "street": "2395 Bayview Ave",
    "suite": "NULL",
    "postalcode": "M2L1A2",
    "phone": "416-449-9651 ext 105 (Voice)",
    "website": "NULL",
    "major_intersection": "Post Rd - Bayview Ave",
    "riding": "Don Valley West",
    "site": "OS",
    "site_description": "OEYC Satellite Site",
    "agency_type": 4,
    "agency_description": "Satellite Site",
    "x": 314408.646,
    "y": 4843650.065,
    "latitude": 43.7347,
    "longitude": -79.3805
  },
  {
    "geometry": "POINT (-79.3858599859 43.7609842762)",
    "name": "Trinity Presbyterian Church York Mills",
    "street": "2737 Bayview Ave",
    "suite": "NULL",
    "postalcode": "M2L1C5",
    "phone": "c/o Main Site 416-421-8997",
    "website": "NULL",
    "major_intersection": "Hwy 401 - Bayview Ave",
    "riding": "Don Valley West",
    "site": "OS",
    "site_description": "OEYC Satellite Site",
    "agency_type": 4,
    "agency_description": "Satellite Site",
    "x": 313975.071,
    "y": 4846563.921,
    "latitude": 43.761,
    "longitude": -79.3859
  },
  {
    "geometry": "POINT (-79.4539929479 43.7017135044)",
    "name": "Macaulay Child Development Centre",
    "street": "2700 Dufferin St",
    "suite": "NULL",
    "postalcode": "M6B4J3",
    "phone": "416-783-7298",
    "website": "http://www.gov.on.ca/children/oeyc/en/location/Toronto/Toronto-Eglinton-Lawrence/index.",
    "major_intersection": "Briar Hill Ave - Dufferin St",
    "riding": "Eglinton-Lawrence",
    "site": "MS",
    "site_description": "Main Site",
    "agency_type": 1,
    "agency_description": "Main Site",
    "x": 308492.598,
    "y": 4839973.954,
    "latitude": 43.7017,
    "longitude": -79.454
  },
  {
    "geometry": "POINT (-79.4299862051 43.7190087983)",
    "name": "Bathurst/Lawrence",
    "street": "505 Lawrence Ave W",
    "suite": "NULL",
    "postalcode": "M6A1A3",
    "phone": "c/o Main Site 416-783-7298",
    "website": "NULL",
    "major_intersection": "Lawrence Ave W - Bathurst St",
    "riding": "Eglinton-Lawrence",
    "site": "OS",
    "site_description": "OEYC Satellite Site",
    "agency_type": 4,
    "agency_description": "Satellite Site",
    "x": 310425.959,
    "y": 4841896.739,
    "latitude": 43.719,
    "longitude": -79.43
  },
  {
    "geometry": "POINT (-79.4049346542 43.7309978224)",
    "name": "Fairlawn Neighbourhood Centre",
    "street": "28 Fairlawn Ave",
    "suite": "NULL",
    "postalcode": "M5M1S7",
    "phone": "c/o Main Site 416-783-7298",
    "website": "NULL",
    "major_intersection": "Yonge Blvd - Yonge St",
    "riding": "Eglinton-Lawrence",
    "site": "OS",
    "site_description": "OEYC Satellite Site",
    "agency_type": 4,
    "agency_description": "Satellite Site",
    "x": 312442.977,
    "y": 4843230.692,
    "latitude": 43.731,
    "longitude": -79.4049
  },
  {
    "geometry": "POINT (-79.4637607527 43.7097839871)",
    "name": "Joyce Public School",
    "street": "26 Joyce Pkwy",
    "suite": "NULL",
    "postalcode": "M6B2S9",
    "phone": "c/o Main Site 416-783-7298",
    "website": "NULL",
    "major_intersection": "Lawrence Ave W - Caledonia Rd",
    "riding": "Eglinton-Lawrence",
    "site": "OS",
    "site_description": "OEYC Satellite Site",
    "agency_type": 4,
    "agency_description": "Satellite Site",
    "x": 307704.947,
    "y": 4840870.163,
    "latitude": 43.7098,
    "longitude": -79.4638
  },
  {
    "geometry": "POINT (-79.4474341509 43.7169349257)",
    "name": "North York Community House - Lawrence Square",
    "street": "700 Lawrence Ave W",
    "suite": "NULL",
    "postalcode": "M6A3B4",
    "phone": "c/o Main Site 416-783-7298",
    "website": "NULL",
    "major_intersection": "Lawrence Ave W - Allen Rd",
    "riding": "Eglinton-Lawrence",
    "site": "OS",
    "site_description": "OEYC Satellite Site",
    "agency_type": 4,
    "agency_description": "Satellite Site",
    "x": 309020.188,
    "y": 4841665.274,
    "latitude": 43.7169,
    "longitude": -79.4474
  },
  {
    "geometry": "POINT (-79.399462829 43.7097136952)",
    "name": "The Anne Johnston Health Station",
    "street": "2398 Yonge St",
    "suite": "NULL",
    "postalcode": "M4P2H4",
    "phone": "c/o Main Site 416-783-7298",
    "website": "NULL",
    "major_intersection": "Eglington St E - Eglinton St W - Yonge St",
    "riding": "Eglinton-Lawrence",
    "site": "SS",
    "site_description": "Seasonal Satellite Site",
    "agency_type": 4,
    "agency_description": "Satellite Site",
    "x": 312886.63,
    "y": 4840866.696,
    "latitude": 43.7097,
    "longitude": -79.3995
  },
  {
    "geometry": "POINT (-79.5716025952 43.7590466239)",
    "name": "Humber Summit Library Delta Family Resource Centre",
    "street": "2990 Islington Ave",
    "suite": "NULL",
    "postalcode": "M6L1A8",
    "phone": "416-663-2733",
    "website": "NULL",
    "major_intersection": "Steeles Ave W - Islington Ave",
    "riding": "York West",
    "site": "OS",
    "site_description": "OEYC Satellite Site",
    "agency_type": 4,
    "agency_description": "Satellite Site",
    "x": 299018.998,
    "y": 4846344.929,
    "latitude": 43.759,
    "longitude": -79.5716
  },
  {
    "geometry": "POINT (-79.3977689218 43.6354141018)",
    "name": "Harbourfront Community Centre",
    "street": "627 Queens Quay W",
    "suite": "NULL",
    "postalcode": "M5V3G3",
    "phone": "416-392-1509 ext 319",
    "website": "NULL",
    "major_intersection": "Queens Quay - Bathurst St",
    "riding": "Trinity-Spadina",
    "site": "OS",
    "site_description": "OEYC Satellite Site",
    "agency_type": 4,
    "agency_description": "Satellite Site",
    "x": 313033.279,
    "y": 4832612.309,
    "latitude": 43.6354,
    "longitude": -79.3978
  },
  {
    "geometry": "POINT (-79.2801522059 43.7476371904)",
    "name": "McGregor Park Community Centre",
    "street": "2231 Lawrence Ave E",
    "suite": "NULL",
    "postalcode": "M1P2P5",
    "phone": "416-438-1800",
    "website": "NULL",
    "major_intersection": "Lawrence Ave E - Kennedy Rd",
    "riding": "Scarborough Centre",
    "site": "OS",
    "site_description": "OEYC Satellite Site",
    "agency_type": 4,
    "agency_description": "Satellite Site",
    "x": 322490.444,
    "y": 4845098.196,
    "latitude": 43.7476,
    "longitude": -79.2802
  },
  {
    "geometry": "POINT (-79.5612998179 43.6353191199)",
    "name": "The George Hull Centre",
    "street": "295 The West Mall",
    "suite": "NULL",
    "postalcode": "M9C4Z4",
    "phone": "416-626-0215 ext 181",
    "website": "http://www.gov.on.ca/children/oeyc/en/location/Toronto/Etobicoke_Centre/index.html",
    "major_intersection": "Bloor St W - The West Mall",
    "riding": "Etobicoke Centre",
    "site": "MS",
    "site_description": "Main Site",
    "agency_type": 1,
    "agency_description": "Main Site",
    "x": 299838.212,
    "y": 4832598.683,
    "latitude": 43.6353,
    "longitude": -79.5613
  },
  {
    "geometry": "POINT (-79.5848958539 43.7517706859)",
    "name": "North Kipling Community Centre",
    "street": "2 Rowntree Rd",
    "suite": "NULL",
    "postalcode": "M9V5C7",
    "phone": "c/o Main Site 416-745-3113",
    "website": "NULL",
    "major_intersection": "Finch Ave W - Kipling Ave",
    "riding": "Etobicoke North",
    "site": "OS",
    "site_description": "OEYC Satellite Site",
    "agency_type": 4,
    "agency_description": "Satellite Site",
    "x": 297947.748,
    "y": 4845537.631,
    "latitude": 43.7518,
    "longitude": -79.5849
  },
  {
    "geometry": "POINT (-79.3095174242 43.6876620722)",
    "name": "East End Children's Centre (Terry Fox)",
    "street": "2 Gledhill Ave",
    "suite": "NULL",
    "postalcode": "M4C5K6",
    "phone": "416-425-4051",
    "website": "NULL",
    "major_intersection": "Danforth Ave - Woodbine Ave",
    "riding": "Beaches-East York",
    "site": "US",
    "site_description": "Unique Satellite Site",
    "agency_type": 4,
    "agency_description": "Satellite Site",
    "x": 320140.708,
    "y": 4838429.462,
    "latitude": 43.6877,
    "longitude": -79.3095
  },
  {
    "geometry": "POINT (-79.340381507 43.761643695)",
    "name": "Rene Gordon Elementary School",
    "street": "20 Karen Rd",
    "suite": "NULL",
    "postalcode": "M3A3L3",
    "phone": "c/o Main Site 416-496-2601",
    "website": "NULL",
    "major_intersection": "Don Valley Pkwy - York Mills Rd",
    "riding": "Don Valley East",
    "site": "SS",
    "site_description": "Seasonal Satellite Site",
    "agency_type": 4,
    "agency_description": "Satellite Site",
    "x": 317636.543,
    "y": 4846644.146,
    "latitude": 43.7616,
    "longitude": -79.3404
  },
  {
    "geometry": "POINT (-79.3719883013 43.6494439394)",
    "name": "Parent Resources at St. Lawrence Market Complex",
    "street": "92 Front St E",
    "suite": "NULL",
    "postalcode": "M5E1C4",
    "phone": "416-941-9248",
    "website": "NULL",
    "major_intersection": "Front St E - Jarvis St",
    "riding": "Toronto Centre-Rosedale",
    "site": "OS",
    "site_description": "OEYC Satellite Site",
    "agency_type": 4,
    "agency_description": "Satellite Site",
    "x": 315111.031,
    "y": 4834173.939,
    "latitude": 43.6494,
    "longitude": -79.372
  },
  {
    "geometry": "POINT (-79.3848447836 43.6636315307)",
    "name": "YMCA Family Development Resource Centre",
    "street": "15 Breadalbane St",
    "suite": "3rd Floor",
    "postalcode": "M4Y1C2",
    "phone": "416-925-4363",
    "website": "NULL",
    "major_intersection": "Wellesley St E - Young St",
    "riding": "Toronto Centre-Rosedale",
    "site": "OS",
    "site_description": "OEYC Satellite Site",
    "agency_type": 4,
    "agency_description": "Satellite Site",
    "x": 314071.726,
    "y": 4835748.623,
    "latitude": 43.6636,
    "longitude": -79.3848
  },
  {
    "geometry": "POINT (-79.3809458538 43.6665605425)",
    "name": "The 519 Church Street Community Centre",
    "street": "519 Church St",
    "suite": "NULL",
    "postalcode": "M4Y2C9",
    "phone": "416-355-6786",
    "website": "NULL",
    "major_intersection": "Bloor St - Yonge St",
    "riding": "Toronto Centre-Rosedale",
    "site": "US",
    "site_description": "Unique Satellite Site",
    "agency_type": 4,
    "agency_description": "Satellite Site",
    "x": 314385.724,
    "y": 4836074.441,
    "latitude": 43.6666,
    "longitude": -79.3809
  },
  {
    "geometry": "POINT (-79.3739707776 43.6720028502)",
    "name": "Gerrard Resource Centre",
    "street": "525 Bloor St E",
    "suite": "NULL",
    "postalcode": "M4W1J1",
    "phone": "416-972-1319",
    "website": "NULL",
    "major_intersection": "Bloor St E - Parliament St",
    "riding": "Toronto Centre-Rosedale",
    "site": "US",
    "site_description": "Unique Satellite Site",
    "agency_type": 4,
    "agency_description": "Satellite Site",
    "x": 314947.311,
    "y": 4836679.887,
    "latitude": 43.672,
    "longitude": -79.374
  },
  {
    "geometry": "POINT (-79.3790567334 43.6596014581)",
    "name": "Gerrard Resource Centre c/o Ryerson University",
    "street": "43 Gerrard St E",
    "suite": "NULL",
    "postalcode": "M5B2K8",
    "phone": "416-979-5000 ext 2535",
    "website": "NULL",
    "major_intersection": "Yonge St - Gerrard St E",
    "riding": "Toronto Centre-Rosedale",
    "site": "US",
    "site_description": "Unique Satellite Site",
    "agency_type": 4,
    "agency_description": "Satellite Site",
    "x": 314539.203,
    "y": 4835301.559,
    "latitude": 43.6596,
    "longitude": -79.3791
  },
  {
    "geometry": "POINT (-79.371478374 43.6606135066)",
    "name": "Robertson House",
    "street": "291 Sherbourne St",
    "suite": "NULL",
    "postalcode": "M5A2R9",
    "phone": "416-686-3390 ext 9791",
    "website": "NULL",
    "major_intersection": "Gerrad St E - Sherbourne St",
    "riding": "Toronto Centre-Rosedale",
    "site": "OS",
    "site_description": "OEYC Satellite Site",
    "agency_type": 4,
    "agency_description": "Satellite Site",
    "x": 315150.26,
    "y": 4835414.889,
    "latitude": 43.6606,
    "longitude": -79.3715
  },
  {
    "geometry": "POINT (-79.3565932641 43.686617712)",
    "name": "The Massey Centre for Women",
    "street": "1102 Broadview Ave",
    "suite": "NULL",
    "postalcode": "M4K2S5",
    "phone": "416-425-3636",
    "website": "http://www.gov.on.ca/children/oeyc/en/location/Toronto/Toronto-Danforth/index.html",
    "major_intersection": "Mortimer Ave - Broadview Ave",
    "riding": "Toronto Danforth",
    "site": "MS",
    "site_description": "Main Site",
    "agency_type": 1,
    "agency_description": "Main Site",
    "x": 316345.877,
    "y": 4838305.824,
    "latitude": 43.6866,
    "longitude": -79.3566
  },
  {
    "geometry": "POINT (-79.3399300182 43.6750424867)",
    "name": "Eastview Neighbourhood Community Centre",
    "street": "86 Blake St",
    "suite": "NULL",
    "postalcode": "M4J3C9",
    "phone": "416-392-1750",
    "website": "NULL",
    "major_intersection": "Danforth Ave - Pape Ave",
    "riding": "Toronto Danforth",
    "site": "US",
    "site_description": "Unique Satellite Site",
    "agency_type": 4,
    "agency_description": "Satellite Site",
    "x": 317691.67,
    "y": 4837022.275,
    "latitude": 43.675,
    "longitude": -79.3399
  },
  {
    "geometry": "POINT (-79.3382131863 43.6924163409)",
    "name": "Donlands Family Resource Program",
    "street": "1108 Greenwood Ave",
    "suite": "NULL",
    "postalcode": "M4J4E6",
    "phone": "416-686-3390",
    "website": "NULL",
    "major_intersection": "Cosburn Ave - Greenwood Ave",
    "riding": "Toronto Danforth",
    "site": "US",
    "site_description": "Unique Satellite Site",
    "agency_type": 4,
    "agency_description": "Satellite Site",
    "x": 317826.338,
    "y": 4838952.669,
    "latitude": 43.6924,
    "longitude": -79.3382
  },
  {
    "geometry": "POINT (-79.5549135046 43.6876771476)",
    "name": "Room to Grow Child Centre",
    "street": "8 Templar Dr",
    "suite": "NULL",
    "postalcode": "M9R3C7",
    "phone": "416-245-5767",
    "website": "NULL",
    "major_intersection": "The Westway - Kipling Ave",
    "riding": "Etobicoke Centre",
    "site": "OS",
    "site_description": "OEYC Satellite Site",
    "agency_type": 4,
    "agency_description": "Satellite Site",
    "x": 300357.445,
    "y": 4838415.144,
    "latitude": 43.6877,
    "longitude": -79.5549
  },
  {
    "geometry": "POINT (-79.5688556079 43.6346279603)",
    "name": "Terry Tan Child Centre - Bloordale United Church",
    "street": "4258 Bloor St W",
    "suite": "NULL",
    "postalcode": "M9C1Z7",
    "phone": "416-622-5587",
    "website": "NULL",
    "major_intersection": "Bloor St W - Mill Rd",
    "riding": "Etobicoke Centre",
    "site": "OS",
    "site_description": "OEYC Satellite Site",
    "agency_type": 4,
    "agency_description": "Satellite Site",
    "x": 299228.488,
    "y": 4832522.38,
    "latitude": 43.6346,
    "longitude": -79.5689
  },
  {
    "geometry": "POINT (-79.5259604356 43.6971352033)",
    "name": "Village of Humber Heights",
    "street": "2245 Lawrence Ave W",
    "suite": "NULL",
    "postalcode": "M9P3W3",
    "phone": "416-622-5587",
    "website": "NULL",
    "major_intersection": "Lawrence Ave W - Dixon Rd",
    "riding": "Etobicoke Centre",
    "site": "OS",
    "site_description": "OEYC Satellite Site",
    "agency_type": 4,
    "agency_description": "Satellite Site",
    "x": 302691.921,
    "y": 4839464.822,
    "latitude": 43.6971,
    "longitude": -79.526
  },
  {
    "geometry": "POINT (-79.5253118023 43.7006762308)",
    "name": "Scarlet Manor",
    "street": "1025 Scarlett Road",
    "suite": "NULL",
    "postalcode": "M9P293",
    "phone": "416-622-5587",
    "website": "NULL",
    "major_intersection": "Scarlett Rd - Lawrence Ave W",
    "riding": "Etobicoke Centre",
    "site": "OS",
    "site_description": "OEYC Satellite Site",
    "agency_type": 4,
    "agency_description": "Satellite Site",
    "x": 302744.324,
    "y": 4839858.199,
    "latitude": 43.7007,
    "longitude": -79.5253
  },
  {
    "geometry": "POINT (-79.5417250646 43.6886662624)",
    "name": "Westway Park",
    "street": "175 The Westway",
    "suite": "NULL",
    "postalcode": "M9P2C2",
    "phone": "416-622-5587",
    "website": "NULL",
    "major_intersection": "Islington Ave - The Westway",
    "riding": "Etobicoke Centre",
    "site": "SS",
    "site_description": "Seasonal Satellite Site",
    "agency_type": 4,
    "agency_description": "Satellite Site",
    "x": 301420.684,
    "y": 4838524.481,
    "latitude": 43.6887,
    "longitude": -79.5417
  },
  {
    "geometry": "POINT (-79.5034339274 43.6035732954)",
    "name": "LAMP Community Health Centre",
    "street": "185 Fifth St",
    "suite": "NULL",
    "postalcode": "M8V2Z5",
    "phone": "416-252-8293",
    "website": "http://www.gov.on.ca/children/oeyc/en/location/Toronto/Etobicoke_Lakeshore/index.html",
    "major_intersection": "Lakeshore Blvd W - Islington Ave",
    "riding": "Etobicoke Lakeshore",
    "site": "MS",
    "site_description": "Main Site",
    "agency_type": 1,
    "agency_description": "Main Site",
    "x": 304507.126,
    "y": 4829070.156,
    "latitude": 43.6036,
    "longitude": -79.5034
  },
  {
    "geometry": "POINT (-79.5380366786 43.6036729807)",
    "name": "Children's Corner/Franklin Horner Community Centre",
    "street": "432 Horner Ave",
    "suite": "NULL",
    "postalcode": "M8W2B2",
    "phone": "416-252-6822",
    "website": "NULL",
    "major_intersection": "Horner Ave - Browns Line",
    "riding": "Etobicoke Lakeshore",
    "site": "OS",
    "site_description": "OEYC Satellite Site",
    "agency_type": 4,
    "agency_description": "Satellite Site",
    "x": 301713.684,
    "y": 4829081.868,
    "latitude": 43.6037,
    "longitude": -79.538
  },
  {
    "geometry": "POINT (-79.4912427645 43.6299579644)",
    "name": "Christ Church St. St James Anglican Church",
    "street": "194 Park Lawn Rd",
    "suite": "NULL",
    "postalcode": "M8V2R1",
    "phone": "416-252-6822",
    "website": "NULL",
    "major_intersection": "Horner Ave - Browns Line",
    "riding": "Etobicoke Lakeshore",
    "site": "OS",
    "site_description": "OEYC Satellite Site",
    "agency_type": 4,
    "agency_description": "Satellite Site",
    "x": 305490.995,
    "y": 4832001.395,
    "latitude": 43.63,
    "longitude": -79.4912
  },
  {
    "geometry": "POINT (-79.4937450535 43.6148016189)",
    "name": "Mimico Public Library",
    "street": "47 Station Rd",
    "suite": "NULL",
    "postalcode": "M8V2R1",
    "phone": "416-252-8293",
    "website": "NULL",
    "major_intersection": "Lakeshore Blvd West - Royal Rd",
    "riding": "Etobicoke Lakeshore",
    "site": "OS",
    "site_description": "OEYC Satellite Site",
    "agency_type": 4,
    "agency_description": "Satellite Site",
    "x": 305289.183,
    "y": 4830317.593,
    "latitude": 43.6148,
    "longitude": -79.4937
  },
  {
    "geometry": "POINT (-79.4944212654 43.6118643072)",
    "name": "Next Door Family Resources/John English School",
    "street": "95 Mimico Ave",
    "suite": "Rm 100",
    "postalcode": "M8V1R4",
    "phone": "416-259-0333",
    "website": "NULL",
    "major_intersection": "Lakeshore Blvd W - Royal York Rd",
    "riding": "Etobicoke Lakeshore",
    "site": "US",
    "site_description": "Unique Satellite Site",
    "agency_type": 4,
    "agency_description": "Satellite Site",
    "x": 305234.62,
    "y": 4829991.268,
    "latitude": 43.6119,
    "longitude": -79.4944
  },
  {
    "geometry": "POINT (-79.22700167 43.77950279)",
    "name": "Woburn Park",
    "street": "40 Dormington Dr",
    "suite": "NULL",
    "postalcode": "M1G3N2",
    "phone": "416-438-1800",
    "website": "NULL",
    "major_intersection": "Ellesmere Rd - Scarborough Golf Club Rd",
    "riding": "Scarborough-Centre",
    "site": "SS",
    "site_description": "Seasonal Satellite Site",
    "agency_type": 4,
    "agency_description": "Satellite Site",
    "x": 326759.164,
    "y": 4848651.926,
    "latitude": 43.7795,
    "longitude": -79.227
  },
  {
    "geometry": "POINT (-79.205286682 43.818292292)",
    "name": "Rouge River Ontario Early Years Centre",
    "street": "90 Littles Rd",
    "suite": "",
    "postalcode": "M1B5E2",
    "phone": "416-284-4184",
    "website": "http://www.gov.on.ca/children/oeyc/en/location/Toronto/Scarborough_-_Rouge_River/index.",
    "major_intersection": "Littles Rd - Sewelles Rd",
    "riding": "Scarborough-Rouge River",
    "site": "MS",
    "site_description": "Main Site",
    "agency_type": 1,
    "agency_description": "Main Site",
    "x": 328491.876,
    "y": 4852967.25,
    "latitude": 43.8183,
    "longitude": -79.2053
  },
  {
    "geometry": "POINT (-79.27855339 43.819268977)",
    "name": "Agnes MacPhail Junior Public School",
    "street": "112 Goldhawk Trail",
    "suite": "NULL",
    "postalcode": "M1V1W5",
    "phone": "416-284-4184",
    "website": "NULL",
    "major_intersection": "McCowan Rd - McNicoll Rd",
    "riding": "Scarborough-Rouge River",
    "site": "SS",
    "site_description": "Seasonal Satellite Site",
    "agency_type": 4,
    "agency_description": "Satellite Site",
    "x": 322597.918,
    "y": 4853057.524,
    "latitude": 43.8193,
    "longitude": -79.2786
  },
  {
    "geometry": "POINT (-79.234370217 43.7940560018)",
    "name": "Burrows Hall Community Centre",
    "street": "1081 Progress Ave",
    "suite": "NULL",
    "postalcode": "M1B5Z6",
    "phone": "416-284-4184",
    "website": "NULL",
    "major_intersection": "Sheppard Ave E - Markham Rd",
    "riding": "Scarborough-Rouge River",
    "site": "OS",
    "site_description": "OEYC Satellite Site",
    "agency_type": 4,
    "agency_description": "Satellite Site",
    "x": 326161.149,
    "y": 4850265.841,
    "latitude": 43.7941,
    "longitude": -79.2344
  },
  {
    "geometry": "POINT (-79.2194039873 43.8079593758)",
    "name": "Malvern Family Resource Centre",
    "street": "1321 Neilson Rd",
    "suite": "NULL",
    "postalcode": "M1B3C2",
    "phone": "416-284-4184",
    "website": "NULL",
    "major_intersection": "Tapscott Rd - Neilson Rd",
    "riding": "Scarborough-Rouge River",
    "site": "OS",
    "site_description": "OEYC Satellite Site",
    "agency_type": 4,
    "agency_description": "Satellite Site",
    "x": 327360.357,
    "y": 4851814.426,
    "latitude": 43.808,
    "longitude": -79.2194
  },
  {
    "geometry": "POINT (-79.225216229 43.81387608)",
    "name": "Neilson House",
    "street": "1575 Neilson Rd",
    "suite": "NULL",
    "postalcode": "M1B5Z7",
    "phone": "416-284-4184",
    "website": "NULL",
    "major_intersection": "Finch Ave E - Neilson Rd",
    "riding": "Scarborough-Rouge River",
    "site": "OS",
    "site_description": "OEYC Satellite Site",
    "agency_type": 4,
    "agency_description": "Satellite Site",
    "x": 326890.31,
    "y": 4852471.137,
    "latitude": 43.8139,
    "longitude": -79.2252
  },
  {
    "geometry": "POINT (-79.49976953 43.6036769908)",
    "name": "Next Door Family Resources/Second Street School",
    "street": "71 Second St",
    "suite": "Rm 119",
    "postalcode": "M8V2X4",
    "phone": "416-251-7112",
    "website": "NULL",
    "major_intersection": "Lakeshore Blvd W - Dwight Ave",
    "riding": "Etobicoke Lakeshore",
    "site": "US",
    "site_description": "Unique Satellite Site",
    "agency_type": 4,
    "agency_description": "Satellite Site",
    "x": 304802.937,
    "y": 4829081.68,
    "latitude": 43.6037,
    "longitude": -79.4998
  },
  {
    "geometry": "POINT (-79.5299317734 43.649566204)",
    "name": "Next Door Family Resources/Islington Village",
    "street": "25 Burnhamthorpe Rd",
    "suite": "NULL",
    "postalcode": "M9A1G9",
    "phone": "416-259-0333",
    "website": "NULL",
    "major_intersection": "Burnhamthorpe Rd - Dundas St W",
    "riding": "Etobicoke Lakeshore",
    "site": "US",
    "site_description": "Unique Satellite Site",
    "agency_type": 4,
    "agency_description": "Satellite Site",
    "x": 302369.688,
    "y": 4834180.237,
    "latitude": 43.6496,
    "longitude": -79.5299
  },
  {
    "geometry": "POINT (-79.5271940528 43.59557452)",
    "name": "Next Door Family Resources/Long Branch Baptist Church",
    "street": "3381 Lakeshore Blvd W",
    "suite": "NULL",
    "postalcode": "M8W1N1",
    "phone": "416-259-0333",
    "website": "NULL",
    "major_intersection": "Lakeshore Blvd W - Kipling Ave",
    "riding": "Etobicoke Lakeshore",
    "site": "US",
    "site_description": "Unique Satellite Site",
    "agency_type": 4,
    "agency_description": "Satellite Site",
    "x": 302588.759,
    "y": 4828181.845,
    "latitude": 43.5956,
    "longitude": -79.5272
  },
  {
    "geometry": "POINT (-79.5166534651 43.6272812942)",
    "name": "Norseman Drop-In",
    "street": "950 Islington Ave",
    "suite": "NULL",
    "postalcode": "M8Y4P6",
    "phone": "c/o Main Site 416-252-8293",
    "website": "NULL",
    "major_intersection": "Islington Ave - The Queensway",
    "riding": "Etobicoke Lakeshore",
    "site": "OS",
    "site_description": "OEYC Satellite Site",
    "agency_type": 4,
    "agency_description": "Satellite Site",
    "x": 303440.419,
    "y": 4831704.153,
    "latitude": 43.6273,
    "longitude": -79.5167
  },
  {
    "geometry": "POINT (-79.508920952 43.6427466413)",
    "name": "Sunnylea Drop-In",
    "street": "851 Royal York Rd",
    "suite": "NULL",
    "postalcode": "M8Y2V3",
    "phone": "c/o Stonegate CHC 416-231-7070",
    "website": "NULL",
    "major_intersection": "Norsman St - Royal York Rd",
    "riding": "Etobicoke Lakeshore",
    "site": "OS",
    "site_description": "OEYC Satellite Site",
    "agency_type": 4,
    "agency_description": "Satellite Site",
    "x": 304064.557,
    "y": 4833422.158,
    "latitude": 43.6427,
    "longitude": -79.5089
  },
  {
    "geometry": "POINT (-79.5841715156 43.7398614595)",
    "name": "Albion Public Library",
    "street": "1515 Albion Rd",
    "suite": "NULL",
    "postalcode": "M9V1B2",
    "phone": "416-747-0641",
    "website": "NULL",
    "major_intersection": "Albion Rd - Kipling Ave",
    "riding": "Etobicoke North",
    "site": "OS",
    "site_description": "OEYC Satellite Site",
    "agency_type": 4,
    "agency_description": "Satellite Site",
    "x": 298004.688,
    "y": 4844214.531,
    "latitude": 43.7399,
    "longitude": -79.5842
  },
  {
    "geometry": "POINT (-79.5488671034 43.7280384161)",
    "name": "Braeburn Junior School",
    "street": "15 Tandridge Cres",
    "suite": "NULL",
    "postalcode": "M9W2P1",
    "phone": "416-747-0641",
    "website": "NULL",
    "major_intersection": "Arcot Rd - Albion Rd",
    "riding": "Etobicoke North",
    "site": "SS",
    "site_description": "Seasonal Satellite Site",
    "agency_type": 4,
    "agency_description": "Satellite Site",
    "x": 300847.586,
    "y": 4842898.753,
    "latitude": 43.728,
    "longitude": -79.5489
  },
  {
    "geometry": "POINT (-79.5467253887 43.7288898583)",
    "name": "Braeburn Neighbourhood Place Boys and Girls Club",
    "street": "75 Tandridge Cres",
    "suite": "#108",
    "postalcode": "M9W2N9",
    "phone": "416-745-3113",
    "website": "http://www.gov.on.ca/children/oeyc/en/location/Toronto/Etobicoke_North/index.html",
    "major_intersection": "Arcot Rd - Albion Rd",
    "riding": "Etobicoke North",
    "site": "MS",
    "site_description": "Main Site",
    "agency_type": 1,
    "agency_description": "Main Site",
    "x": 301020.19,
    "y": 4842993.242,
    "latitude": 43.7289,
    "longitude": -79.5467
  },
  {
    "geometry": "POINT (-79.5892098702 43.7455842576)",
    "name": "Highfield Community Enrichment Project",
    "street": "85 Mount Olive Dr",
    "suite": "NULL",
    "postalcode": "M9V2C9",
    "phone": "416-394-6152",
    "website": "NULL",
    "major_intersection": "Finch Ave W - Kipling Ave",
    "riding": "Etobicoke North",
    "site": "OS",
    "site_description": "OEYC Satellite Site",
    "agency_type": 4,
    "agency_description": "Satellite Site",
    "x": 297599.566,
    "y": 4844850.729,
    "latitude": 43.7456,
    "longitude": -79.5892
  },
  {
    "geometry": "POINT (-79.2745822152 43.8296478733)",
    "name": "Milliken Park Community Receration Centre",
    "street": "4325 McCowan Rd",
    "suite": "NULL",
    "postalcode": "M1V4P1",
    "phone": "416-284-4184",
    "website": "NULL",
    "major_intersection": "McCowan Rd - Steeles Ave",
    "riding": "Scarborough-Rouge River",
    "site": "SS",
    "site_description": "Seasonal Satellite Site",
    "agency_type": 4,
    "agency_description": "Satellite Site",
    "x": 322914.505,
    "y": 4854210.481,
    "latitude": 43.8296,
    "longitude": -79.2746
  },
  {
    "geometry": "POINT (-79.3787749632 43.7681625227)",
    "name": "Bessarion Satellite",
    "street": "675 Sheppard Ave E",
    "suite": "NULL",
    "postalcode": "M2K1B6",
    "phone": "416-494-1579 ext 301",
    "website": "NULL",
    "major_intersection": "Bessarion Rd - Sheppard Ave E",
    "riding": "Willowdale",
    "site": "OS",
    "site_description": "OEYC Satellite Site",
    "agency_type": 4,
    "agency_description": "Satellite Site",
    "x": 314544.339,
    "y": 4847362.195,
    "latitude": 43.7682,
    "longitude": -79.3788
  },
  {
    "geometry": "POINT (-79.4221433039 43.7909118892)",
    "name": "Goulding Satellitee",
    "street": "45 Goulding Ave",
    "suite": "Rm 1",
    "postalcode": "M2M1K8",
    "phone": "416-494-1579 ext 301",
    "website": "NULL",
    "major_intersection": "Lariviere Ave - Patricia Ave",
    "riding": "Willowdale",
    "site": "OS",
    "site_description": "OEYC Satellite Site",
    "agency_type": 4,
    "agency_description": "Satellite Site",
    "x": 311050.454,
    "y": 4849885.435,
    "latitude": 43.7909,
    "longitude": -79.4221
  },
  {
    "geometry": "POINT (-79.4332655452 43.7919191694)",
    "name": "St.Theodore's Satellite",
    "street": "111 Cactus Ave",
    "suite": "NULL",
    "postalcode": "M2R2V1",
    "phone": "416-494-1579 ext 301",
    "website": "NULL",
    "major_intersection": "Hilda Ave - Steeles Ave W",
    "riding": "Willowdale",
    "site": "OS",
    "site_description": "OEYC Satellite Site",
    "agency_type": 4,
    "agency_description": "Satellite Site",
    "x": 310155.257,
    "y": 4849996.54,
    "latitude": 43.7919,
    "longitude": -79.4333
  },
  {
    "geometry": "POINT (-79.4959297487 43.7424154325)",
    "name": "Hincks Dellcrest Centre",
    "street": "1645 Sheppard Ave W",
    "suite": "NULL",
    "postalcode": "M3M2X4",
    "phone": "416-633-4035",
    "website": "http://www.gov.on.ca/children/oeyc/en/location/Toronto/YorkCentre/index.html",
    "major_intersection": "Sheppard Ave W - Keele St",
    "riding": "York Centre",
    "site": "MS",
    "site_description": "Main Site",
    "agency_type": 1,
    "agency_description": "Main Site",
    "x": 305112.407,
    "y": 4844494.715,
    "latitude": 43.7424,
    "longitude": -79.4959
  },
  {
    "geometry": "POINT (-79.445135769 43.774037919)",
    "name": "Bathurst - Finch Hub",
    "street": "540 Finch Ave W",
    "suite": "NULL",
    "postalcode": "M2R1N7",
    "phone": "647-436-0385",
    "website": "NULL",
    "major_intersection": "Bathurst - Finch Ave W",
    "riding": "York Centre",
    "site": "SS",
    "site_description": "Seasonal Satellite Site",
    "agency_type": 4,
    "agency_description": "Satellite Site",
    "x": 309201.032,
    "y": 4848010.239,
    "latitude": 43.774,
    "longitude": -79.4451
  },
  {
    "geometry": "POINT (-79.4495934905 43.7730467344)",
    "name": "Centennial Public Library",
    "street": "578 Finch Ave W",
    "suite": "NULL",
    "postalcode": "M2R1N7",
    "phone": "416-395-5490",
    "website": "NULL",
    "major_intersection": "Finch Ave W - Bathurst St",
    "riding": "York Centre",
    "site": "SS",
    "site_description": "Seasonal Satellite Site",
    "agency_type": 4,
    "agency_description": "Satellite Site",
    "x": 308842.517,
    "y": 4847898.94,
    "latitude": 43.773,
    "longitude": -79.4496
  },
  {
    "geometry": "POINT (-79.5097182487 43.7400337211)",
    "name": "Delta Family Resource Centre",
    "street": "1900 Sheppard Ave W",
    "suite": "NULL",
    "postalcode": "M3L1Y7",
    "phone": "416-747-1172",
    "website": "NULL",
    "major_intersection": "Sheppard Ave W - Jane St",
    "riding": "York Centre",
    "site": "US",
    "site_description": "Unique Satellite Site",
    "agency_type": 4,
    "agency_description": "Satellite Site",
    "x": 304001.81,
    "y": 4844230.158,
    "latitude": 43.74,
    "longitude": -79.5097
  },
  {
    "geometry": "POINT (-79.431882446 43.752581564)",
    "name": "Earl Bales Community Centre",
    "street": "4169 Bathurst St",
    "suite": "NULL",
    "postalcode": "M3H3P7",
    "phone": "416-630-8571",
    "website": "NULL",
    "major_intersection": "Sheppard Ave W - Bathurst St",
    "riding": "York Centre",
    "site": "OS",
    "site_description": "OEYC Satellite Site",
    "agency_type": 4,
    "agency_description": "Satellite Site",
    "x": 310269.88,
    "y": 4845627.296,
    "latitude": 43.7526,
    "longitude": -79.4319
  },
  {
    "geometry": "POINT (-79.4823963575 43.7292154138)",
    "name": "Northwood Neighbourhood Services - Kids Place",
    "street": "2801 Keele St",
    "suite": "Unit 103",
    "postalcode": "M3M2G6",
    "phone": "416-398-0030",
    "website": "NULL",
    "major_intersection": "Hwy 401 - Keele St",
    "riding": "York Centre",
    "site": "US",
    "site_description": "Unique Satellite Site",
    "agency_type": 4,
    "agency_description": "Satellite Site",
    "x": 306202.708,
    "y": 4843028.414,
    "latitude": 43.7292,
    "longitude": -79.4824
  },
  {
    "geometry": "POINT (-79.428421239 43.6745786902)",
    "name": "Davenport Library",
    "street": "1246 Shaw St",
    "suite": "NULL",
    "postalcode": "M6G3P1",
    "phone": "416-920-3515",
    "website": "NULL",
    "major_intersection": "Davenport Rd - Christie St",
    "riding": "St. Paul's",
    "site": "OS",
    "site_description": "OEYC Satellite Site",
    "agency_type": 4,
    "agency_description": "Satellite Site",
    "x": 310556.178,
    "y": 4836960.829,
    "latitude": 43.6746,
    "longitude": -79.4284
  },
  {
    "geometry": "POINT (-79.4140485754 43.6850558999)",
    "name": "Holy Rosary Catholic School",
    "street": "308 Tweedsmuir Ave",
    "suite": "NULL",
    "postalcode": "M5P2Y1",
    "phone": "416-920-4054 ext 122",
    "website": "NULL",
    "major_intersection": "St Clair Ave W - Bathurst St",
    "riding": "St. Paul's",
    "site": "OS",
    "site_description": "OEYC Satellite Site",
    "agency_type": 4,
    "agency_description": "Satellite Site",
    "x": 311713.981,
    "y": 4838125.91,
    "latitude": 43.6851,
    "longitude": -79.414
  },
  {
    "geometry": "POINT (-79.424478747 43.6822798573)",
    "name": "Mothercraft West",
    "street": "646 St. Clair Ave W",
    "suite": "NULL",
    "postalcode": "M6C1A9",
    "phone": "416-483-0511",
    "website": "NULL",
    "major_intersection": "St Clair Ave W - Bathurst St",
    "riding": "St. Paul's",
    "site": "OS",
    "site_description": "OEYC Satellite Site",
    "agency_type": 4,
    "agency_description": "Satellite Site",
    "x": 310873.329,
    "y": 4837816.676,
    "latitude": 43.6823,
    "longitude": -79.4245
  },
  {
    "geometry": "POINT (-79.4381553633 43.6865837941)",
    "name": "Oakwood Library",
    "street": "341 Oakwood Ave",
    "suite": "NULL",
    "postalcode": "M6E2W1",
    "phone": "416-920-4054 ext 122",
    "website": "NULL",
    "major_intersection": "Oakwood Ave - Rogers Rd",
    "riding": "St. Paul's",
    "site": "OS",
    "site_description": "OEYC Satellite Site",
    "agency_type": 4,
    "agency_description": "Satellite Site",
    "x": 309770.301,
    "y": 4838293.903,
    "latitude": 43.6866,
    "longitude": -79.4382
  },
  {
    "geometry": "POINT (-79.4270661757 43.6732485335)",
    "name": "St. Bruno's Catholic School",
    "street": "402 Melita Cres",
    "suite": "NULL",
    "postalcode": "M6G3X6",
    "phone": "416-920-3515",
    "website": "NULL",
    "major_intersection": "Dupont St - Christie St",
    "riding": "St. Paul's",
    "site": "OS",
    "site_description": "OEYC Satellite Site",
    "agency_type": 4,
    "agency_description": "Satellite Site",
    "x": 310665.582,
    "y": 4836813.152,
    "latitude": 43.6732,
    "longitude": -79.4271
  },
  {
    "geometry": "POINT (-79.4175796591 43.6820897065)",
    "name": "Wychwood Library",
    "street": "1431 Bathurst St",
    "suite": "NULL",
    "postalcode": "M5R3J2",
    "phone": "416-393-7683",
    "website": "NULL",
    "major_intersection": "St Clair Ave W - Bathurst St",
    "riding": "St. Paul's",
    "site": "OS",
    "site_description": "OEYC Satellite Site",
    "agency_type": 4,
    "agency_description": "Satellite Site",
    "x": 311429.614,
    "y": 4837796.063,
    "latitude": 43.6821,
    "longitude": -79.4176
  },
  {
    "geometry": "POINT (-79.1950289002 43.7666915897)",
    "name": "Scarborough Centre for Healthy Communities",
    "street": "4110 Lawrence Ave E",
    "suite": "NULL",
    "postalcode": "M1E2S2",
    "phone": "416-282-7284",
    "website": "NULL",
    "major_intersection": "Lawerence Ave - Gallaway Road",
    "riding": "Scarborough East",
    "site": "US",
    "site_description": "Unique Satellite Site",
    "agency_type": 4,
    "agency_description": "Satellite Site",
    "x": 329338.224,
    "y": 4847236.605,
    "latitude": 43.7667,
    "longitude": -79.195
  },
  {
    "geometry": "POINT (-79.3183674483 43.7985548109)",
    "name": "West Scarborough Neighbourhood Community Centre",
    "street": "2900 Warden Ave",
    "suite": "Suite 347a",
    "postalcode": "M1W2S8",
    "phone": "416-491-1466",
    "website": "http://www.gov.on.ca/children/oeyc/en/location/Toronto/Scarborough_Agincourt/index.html",
    "major_intersection": "Finch Ave E - Warden Rd",
    "riding": "Scarborough-Agincourt",
    "site": "MS",
    "site_description": "Main Site",
    "agency_type": 1,
    "agency_description": "Main Site",
    "x": 319400.435,
    "y": 4850747.544,
    "latitude": 43.7986,
    "longitude": -79.3184
  },
  {
    "geometry": "POINT (-79.3006308948 43.8006516027)",
    "name": "Centre for Information and Community Services of Ontario",
    "street": "3850 Finch Ave E",
    "suite": "Suite 410",
    "postalcode": "M1W3T9",
    "phone": "416-292-7510",
    "website": "NULL",
    "major_intersection": "Finch Ave E - Kennedy Rd (NW corner)",
    "riding": "Scarborough-Agincourt",
    "site": "US",
    "site_description": "Unique Satellite Site",
    "agency_type": 4,
    "agency_description": "Satellite Site",
    "x": 320827.158,
    "y": 4850983.75,
    "latitude": 43.8007,
    "longitude": -79.3006
  },
  {
    "geometry": "POINT (-79.2805765429 43.7674443016)",
    "name": "Dorset Park Community HUB",
    "street": "1911 Kennedy Rd",
    "suite": "NULL",
    "postalcode": "M1P2L9",
    "phone": "416-321-6912",
    "website": "NULL",
    "major_intersection": "Ellesmere Rd - Kennedy Rd",
    "riding": "Scarborough-Agincourt",
    "site": "US",
    "site_description": "Unique Satellite Site",
    "agency_type": 4,
    "agency_description": "Satellite Site",
    "x": 322450.485,
    "y": 4847298.6,
    "latitude": 43.7674,
    "longitude": -79.2806
  },
  {
    "geometry": "POINT (-79.2261956332 43.7598551306)",
    "name": "Family Day Care Services",
    "street": "3478 Lawrence Ave E",
    "suite": "NULL",
    "postalcode": "M1H1A9",
    "phone": "416-438-1800",
    "website": "http://www.gov.on.ca/children/oeyc/en/location/Toronto/Scarborough_Centre/index.html",
    "major_intersection": "Lawrence Ave E - Markham Rd",
    "riding": "Scarborough-Centre",
    "site": "MS",
    "site_description": "Main Site",
    "agency_type": 1,
    "agency_description": "Main Site",
    "x": 326831.466,
    "y": 4846468.422,
    "latitude": 43.7599,
    "longitude": -79.2262
  },
  {
    "geometry": "POINT (-79.2440272954 43.7510824059)",
    "name": "Bendale Library",
    "street": "1515 Danforth Rd",
    "suite": "NULL",
    "postalcode": "M1J1H5",
    "phone": "416-438-1800",
    "website": "NULL",
    "major_intersection": "Danforth Rd - Lawrence Ave E",
    "riding": "Scarborough-Centre",
    "site": "SS",
    "site_description": "Seasonal Satellite Site",
    "agency_type": 4,
    "agency_description": "Satellite Site",
    "x": 325398.686,
    "y": 4845489.212,
    "latitude": 43.7511,
    "longitude": -79.244
  },
  {
    "geometry": "POINT (-79.2239684307 43.7575573466)",
    "name": "Cedarbae Library",
    "street": "545 Markham Rd",
    "suite": "NULL",
    "postalcode": "M1A2A1",
    "phone": "416-438-1800",
    "website": "NULL",
    "major_intersection": "Markham Rd - Greencedar Circuit",
    "riding": "Scarborough-Centre",
    "site": "SS",
    "site_description": "Seasonal Satellite Site",
    "agency_type": 4,
    "agency_description": "Satellite Site",
    "x": 327011.648,
    "y": 4846213.733,
    "latitude": 43.7576,
    "longitude": -79.224
  },
  {
    "geometry": "POINT (-79.2301959391 43.7473019996)",
    "name": "Cedarbrook Public School",
    "street": "56 Nelson St",
    "suite": "NULL",
    "postalcode": "M1J2V6",
    "phone": "416-438-1800",
    "website": "NULL",
    "major_intersection": "Nelson St - Belamy Rd N",
    "riding": "Scarborough-Centre",
    "site": "SS",
    "site_description": "Seasonal Satellite Site",
    "agency_type": 4,
    "agency_description": "Satellite Site",
    "x": 326513.893,
    "y": 4845072.766,
    "latitude": 43.7473,
    "longitude": -79.2302
  },
  {
    "geometry": "POINT (-79.2169734274 43.7636669242)",
    "name": "Golf Road Public School",
    "street": "730 Scarborough Golf Club Rd",
    "suite": "NULL",
    "postalcode": "M1G1H7",
    "phone": "416-438-1800",
    "website": "NULL",
    "major_intersection": "Scarborough Golf Club Rd - Lawerence Ave E",
    "riding": "Scarborough-Centre",
    "site": "SS",
    "site_description": "Seasonal Satellite Site",
    "agency_type": 4,
    "agency_description": "Satellite Site",
    "x": 327572.605,
    "y": 4846894.361,
    "latitude": 43.7637,
    "longitude": -79.217
  },
  {
    "geometry": "POINT (-79.302719979 43.726505879)",
    "name": "Victoria Village Hub",
    "street": "1527 Victoria Park Ave",
    "suite": "NULL",
    "postalcode": "M1L2T3",
    "phone": "416-438-1800",
    "website": "NULL",
    "major_intersection": "Victoria Park Ave - Eglinton Ave E",
    "riding": "Scarborough-Centre",
    "site": "SS",
    "site_description": "Seasonal Satellite Site",
    "agency_type": 4,
    "agency_description": "Satellite Site",
    "x": 320678.236,
    "y": 4842747.053,
    "latitude": 43.7265,
    "longitude": -79.3027
  },
  {
    "geometry": "POINT (-79.3124106259 43.7570957543)",
    "name": "Parkway Mall Satellite",
    "street": "85 Ellesmere Rd",
    "suite": "NULL",
    "postalcode": "M1R4B9",
    "phone": "416-438-1800",
    "website": "NULL",
    "major_intersection": "Ellesmere Rd - Victoria Park Ave",
    "riding": "Scarborough-Centre",
    "site": "OS",
    "site_description": "OEYC Satellite Site",
    "agency_type": 4,
    "agency_description": "Satellite Site",
    "x": 319890.099,
    "y": 4846142.608,
    "latitude": 43.7571,
    "longitude": -79.3124
  },
  {
    "geometry": "POINT (-79.2580219048 43.7762918562)",
    "name": "Scarborough Youth Resource Centre",
    "street": "300 Borough Dr",
    "suite": "NULL",
    "postalcode": "M1P4P5",
    "phone": "416-438-1800",
    "website": "NULL",
    "major_intersection": "Hwy 401 - McCowan Rd",
    "riding": "Scarborough-Centre",
    "site": "OS",
    "site_description": "OEYC Satellite Site",
    "agency_type": 4,
    "agency_description": "Satellite Site",
    "x": 324263.493,
    "y": 4848286.541,
    "latitude": 43.7763,
    "longitude": -79.258
  },
  {
    "geometry": "POINT (-79.4334468314 43.6473526406)",
    "name": "College Montrose Children's Place (St. Helen's)",
    "street": "66 Sheridan Ave",
    "suite": "NULL",
    "postalcode": "M6K2G7",
    "phone": "416-533-2829",
    "website": "NULL",
    "major_intersection": "Dundas St W - Sheridan Ave",
    "riding": "Davenport",
    "site": "OS",
    "site_description": "OEYC Satellite Site",
    "agency_type": 4,
    "agency_description": "Satellite Site",
    "x": 310153.418,
    "y": 4833935.817,
    "latitude": 43.6474,
    "longitude": -79.4334
  },
  {
    "geometry": "POINT (-79.4539398888 43.670878301)",
    "name": "Community Action Resource Centre",
    "street": "1884 Davenport Rd",
    "suite": "Unit 1",
    "postalcode": "M6N4Y2",
    "phone": "416-654-9860",
    "website": "NULL",
    "major_intersection": "Davenport Rd - Caledonia Park Rd",
    "riding": "Davenport",
    "site": "OS",
    "site_description": "OEYC Satellite Site",
    "agency_type": 4,
    "agency_description": "Satellite Site",
    "x": 308498.716,
    "y": 4836548.304,
    "latitude": 43.6709,
    "longitude": -79.4539
  },
  {
    "geometry": "POINT (-79.4391469216 43.6624976852)",
    "name": "Pauline Public School",
    "street": "100 Pauline Ave",
    "suite": "NULL",
    "postalcode": "M6H3M8",
    "phone": "416-588-3577",
    "website": "NULL",
    "major_intersection": "Bloor St W - Dufferin St",
    "riding": "Davenport",
    "site": "SS",
    "site_description": "Seasonal Satellite Site",
    "agency_type": 4,
    "agency_description": "Satellite Site",
    "x": 309692.342,
    "y": 4835618.008,
    "latitude": 43.6625,
    "longitude": -79.4391
  },
  {
    "geometry": "POINT (-79.4524229466 43.6628399447)",
    "name": "Perth Ave Public School",
    "street": "14 Ruskin Ave",
    "suite": "NULL",
    "postalcode": "M6P3P8",
    "phone": "416-588-3755",
    "website": "NULL",
    "major_intersection": "Dundas St W - Dupont St",
    "riding": "Davenport",
    "site": "SS",
    "site_description": "Seasonal Satellite Site",
    "agency_type": 4,
    "agency_description": "Satellite Site",
    "x": 308621.592,
    "y": 4835655.36,
    "latitude": 43.6628,
    "longitude": -79.4524
  },
  {
    "geometry": "POINT (-79.4539398888 43.670878301)",
    "name": "The Stop Community Food Centre",
    "street": "1884 Davenport Rd",
    "suite": "NULL",
    "postalcode": "M6N4Y2",
    "phone": "416-652-7867 ext 221",
    "website": "NULL",
    "major_intersection": "Davenport Rd - Caledonia Park Rd",
    "riding": "Davenport",
    "site": "OS",
    "site_description": "OEYC Satellite Site",
    "agency_type": 4,
    "agency_description": "Satellite Site",
    "x": 308498.716,
    "y": 4836548.304,
    "latitude": 43.6709,
    "longitude": -79.4539
  },
  {
    "geometry": "POINT (-79.4392738627 43.6673235894)",
    "name": "Wallace Emerson Recreation Centre",
    "street": "1260 Dufferin St",
    "suite": "NULL",
    "postalcode": "M6H4C3",
    "phone": "416-588-3755",
    "website": "NULL",
    "major_intersection": "Dupont St - Dufferin St",
    "riding": "Davenport",
    "site": "SS",
    "site_description": "Seasonal Satellite Site",
    "agency_type": 4,
    "agency_description": "Satellite Site",
    "x": 309681.683,
    "y": 4836154.136,
    "latitude": 43.6673,
    "longitude": -79.4393
  },
  {
    "geometry": "POINT (-79.2899699652 43.8246410228)",
    "name": "Port Royal Public School",
    "street": "408 Port Royal Trail",
    "suite": "NULL",
    "postalcode": "M1V4R1",
    "phone": "416-284-4184",
    "website": "NULL",
    "major_intersection": "Ashcott St - Port Royal Trail",
    "riding": "Scarborough-Rouge River",
    "site": "SS",
    "site_description": "Seasonal Satellite Site",
    "agency_type": 4,
    "agency_description": "Satellite Site",
    "x": 321678.317,
    "y": 4853651.029,
    "latitude": 43.8246,
    "longitude": -79.29
  },
  {
    "geometry": "POINT (-79.2573347679 43.7343550491)",
    "name": "Scarborough Southwest Ontario Early Years Centre",
    "street": "2555 Eglinton Ave E",
    "suite": "Unit 212",
    "postalcode": "M1K5J1",
    "phone": "416-266-8289",
    "website": "http://www.gov.on.ca/children/oeyc/en/location/Toronto/Toronto_-_Scarborough_Southwest/",
    "major_intersection": "Eglinton Ave E - Midland Ave",
    "riding": "Scarborough-Southwest",
    "site": "MS",
    "site_description": "Main Site",
    "agency_type": 1,
    "agency_description": "Main Site",
    "x": 324332.372,
    "y": 4843627.713,
    "latitude": 43.7344,
    "longitude": -79.2573
  },
  {
    "geometry": "POINT (-79.2631112069 43.6956326125)",
    "name": "Birchmount Bluffs Neighbourhood Centre",
    "street": "93 Birchmount Rd",
    "suite": "NULL",
    "postalcode": "M1N3J7",
    "phone": "416-396-4310",
    "website": "NULL",
    "major_intersection": "Kingston Rd - Birchmount Rd",
    "riding": "Scarborough-Southwest",
    "site": "US",
    "site_description": "Unique Satellite Site",
    "agency_type": 4,
    "agency_description": "Satellite Site",
    "x": 323879.352,
    "y": 4839324.488,
    "latitude": 43.6956,
    "longitude": -79.2631
  },
  {
    "geometry": "POINT (-79.2307833466 43.7252817791)",
    "name": "Cliffcrest Community Centre",
    "street": "3017 Kingston Rd",
    "suite": "NULL",
    "postalcode": "M1M1P1",
    "phone": "416-267-6293",
    "website": "NULL",
    "major_intersection": "Kingston Rd - St Clair Ave E",
    "riding": "Scarborough-Southwest",
    "site": "US",
    "site_description": "Unique Satellite Site",
    "agency_type": 4,
    "agency_description": "Satellite Site",
    "x": 326474.451,
    "y": 4842626.318,
    "latitude": 43.7253,
    "longitude": -79.2308
  },
  {
    "geometry": "POINT (-79.262162924 43.72649371)",
    "name": "Corvette Family Resource Centre",
    "street": "30 Corvette Ave",
    "suite": "NULL",
    "postalcode": "M1K3G2",
    "phone": "416-396-5822",
    "website": "NULL",
    "major_intersection": "Eglinton Ave E - Kennedy Rd",
    "riding": "Scarborough-Southwest",
    "site": "US",
    "site_description": "Unique Satellite Site",
    "agency_type": 4,
    "agency_description": "Satellite Site",
    "x": 323945.959,
    "y": 4842753.227,
    "latitude": 43.7265,
    "longitude": -79.2622
  },
  {
    "geometry": "POINT (-79.2315512228 43.7263177046)",
    "name": "The YWCA of Greater Toronto",
    "street": "3090 Kingston Rd",
    "suite": "Suite 101",
    "postalcode": "M1M1P2",
    "phone": "416-266-1232",
    "website": "NULL",
    "major_intersection": "Kingston Rd - McCowan Rd",
    "riding": "Scarborough-Southwest",
    "site": "US",
    "site_description": "Unique Satellite Site",
    "agency_type": 4,
    "agency_description": "Satellite Site",
    "x": 326412.215,
    "y": 4842741.202,
    "latitude": 43.7263,
    "longitude": -79.2316
  },
  {
    "geometry": "POINT (-79.2681489006 43.7145219871)",
    "name": "Warden Woods Community Centre",
    "street": "3485 St Clair Ave E",
    "suite": "NULL",
    "postalcode": "M1K1L3",
    "phone": "416-694-1138",
    "website": "NULL",
    "major_intersection": "St Clair Ave E - Birchmount Rd",
    "riding": "Scarborough-Southwest",
    "site": "US",
    "site_description": "Unique Satellite Site",
    "agency_type": 4,
    "agency_description": "Satellite Site",
    "x": 323467.401,
    "y": 4841421.877,
    "latitude": 43.7145,
    "longitude": -79.2681
  },
  {
    "geometry": "POINT (-79.2846817825 43.701416363)",
    "name": "West Scarborough Neighbourhood Community Centre",
    "street": "313 Pharmacy Ave",
    "suite": "NULL",
    "postalcode": "M1L3E7",
    "phone": "416-755-9215",
    "website": "NULL",
    "major_intersection": "St Clair Ave E - Pharmacy Ave",
    "riding": "Scarborough-Southwest",
    "site": "OS",
    "site_description": "OEYC Satellite Site",
    "agency_type": 4,
    "agency_description": "Satellite Site",
    "x": 322138.975,
    "y": 4839962.308,
    "latitude": 43.7014,
    "longitude": -79.2847
  },
  {
    "geometry": "POINT (-79.3966139783 43.6902383835)",
    "name": "Robertson House",
    "street": "32 Heath St W",
    "suite": "NULL",
    "postalcode": "M4V1T3",
    "phone": "416-920-4054",
    "website": "http://www.gov.on.ca/children/oeyc/en/location/Toronto/St._Paul's/index.html",
    "major_intersection": "St Clair Ave E - St Clair Ave W",
    "riding": "St. Paul's",
    "site": "MS",
    "site_description": "Main Site",
    "agency_type": 1,
    "agency_description": "Main Site",
    "x": 313118.905,
    "y": 4838703.253,
    "latitude": 43.6902,
    "longitude": -79.3966
  },
  {
    "geometry": "POINT (-79.586864373 43.657319079)",
    "name": "Centennial Park",
    "street": "256 Centennial Park Rd",
    "suite": "NULL",
    "postalcode": "M9C3F2",
    "phone": "416-622-5587",
    "website": "NULL",
    "major_intersection": "Centennial Park Gate- Renforth Dr",
    "riding": "Etobicoke Centre",
    "site": "SS",
    "site_description": "Seasonal Satellite Site",
    "agency_type": 4,
    "agency_description": "Satellite Site",
    "x": 297777.864,
    "y": 4835045.576,
    "latitude": 43.6573,
    "longitude": -79.5869
  }
]