[{"geometry":{"type":"Point","coordinates":[-79.430755,43.680114]},"name":"FIRE STATION 343","address":"65 HENDRICK AVE","x":310367.441,"y":4837575.598,"latitude":43.680114,"longitude":-79.430755,"ward_name":"St. Paul's (21)","mun_name":"former Toronto","objectid":1543317.0},{"geometry":{"type":"Point","coordinates":[-79.411827,43.672971]},"name":"FIRE STATION 344","address":"240 HOWLAND AVE","x":311894.453,"y":4836783.463,"latitude":43.672971,"longitude":-79.411827,"ward_name":"Trinity-Spadina (20)","mun_name":"former Toronto","objectid":2997539.0},{"geometry":{"type":"Point","coordinates":[-79.438156,43.66741]},"name":"FIRE STATION 345","address":"1287 DUFFERIN ST","x":309771.831,"y":4836163.769,"latitude":43.66741,"longitude":-79.438156,"ward_name":"Davenport (18)","mun_name":"former Toronto","objectid":1544070.0},{"geometry":{"type":"Point","coordinates":[-79.421333,43.633686]},"name":"FIRE STATION 346 CNE","address":"90 QUEBEC ST","x":311132.072,"y":4832418.289,"latitude":43.633686,"longitude":-79.421333,"ward_name":"Trinity-Spadina (19)","mun_name":"former Toronto","objectid":2841838.0},{"geometry":{"type":"Point","coordinates":[-79.549165,43.755258]},"name":"FIRE STATION 411","address":"75 TORYORK DR","x":300825.159,"y":4845923.673,"latitude":43.755258,"longitude":-79.549165,"ward_name":"York West (7)","mun_name":"North York","objectid":3301795.0},{"geometry":{"type":"Point","coordinates":[-79.617641,43.738117]},"name":"FIRE STATION 412","address":"267 HUMBERLINE DR","x":295308.538,"y":4844023.998,"latitude":43.738117,"longitude":-79.617641,"ward_name":"Etobicoke North (1)","mun_name":"Etobicoke","objectid":1662239.0},{"geometry":{"type":"Point","coordinates":[-79.586909,43.740227]},"name":"FIRE STATION 413","address":"1549 ALBION RD","x":297784.221,"y":4844255.407,"latitude":43.740227,"longitude":-79.586909,"ward_name":"Etobicoke North (1)","mun_name":"Etobicoke","objectid":2546874.0},{"geometry":{"type":"Point","coordinates":[-79.57038,43.717886]},"name":"FIRE STATION 415","address":"2120 KIPLING AVE","x":299113.464,"y":4841772.11,"latitude":43.717886,"longitude":-79.57038,"ward_name":"Etobicoke North (2)","mun_name":"Etobicoke","objectid":2750607.0},{"geometry":{"type":"Point","coordinates":[-79.485305,43.684309]},"name":"FIRE STATION 421","address":"6 LAMBTON AVE","x":305969.15,"y":4838039.511,"latitude":43.684309,"longitude":-79.485305,"ward_name":"York South-Weston (11)","mun_name":"York","objectid":2973435.0},{"geometry":{"type":"Point","coordinates":[-79.490944,43.664411]},"name":"FIRE STATION 422","address":"590 JANE ST","x":305514.667,"y":4835828.873,"latitude":43.664411,"longitude":-79.490944,"ward_name":"Parkdale-High Park (13)","mun_name":"York","objectid":1605282.0},{"geometry":{"type":"Point","coordinates":[-79.464757,43.66475]},"name":"FIRE STATION 423","address":"358 KEELE ST","x":307626.666,"y":4835867.131,"latitude":43.66475,"longitude":-79.464757,"ward_name":"Parkdale-High Park (13)","mun_name":"former Toronto","objectid":2286011.0},{"geometry":{"type":"Point","coordinates":[-79.479633,43.658363]},"name":"FIRE STATION 424","address":"462 RUNNYMEDE RD","x":306427.146,"y":4835157.194,"latitude":43.658363,"longitude":-79.479633,"ward_name":"Parkdale-High Park (13)","mun_name":"former Toronto","objectid":2025112.0},{"geometry":{"type":"Point","coordinates":[-79.478062,43.647996]},"name":"FIRE STATION 425","address":"83 DEFOREST RD","x":306554.171,"y":4834005.445,"latitude":43.647996,"longitude":-79.478062,"ward_name":"Parkdale-High Park (13)","mun_name":"former Toronto","objectid":2943084.0},{"geometry":{"type":"Point","coordinates":[-79.43887,43.645095]},"name":"FIRE STATION 426","address":"140 LANSDOWNE AVE","x":309716.107,"y":4833684.693,"latitude":43.645095,"longitude":-79.43887,"ward_name":"Parkdale-High Park (14)","mun_name":"former Toronto","objectid":1578612.0},{"geometry":{"type":"Point","coordinates":[-79.50485,43.646445]},"name":"FIRE STATION 431","address":"308 PRINCE EDWARD DR S","x":304393.0,"y":4833832.948,"latitude":43.646445,"longitude":-79.50485,"ward_name":"Etobicoke-Lakeshore (5)","mun_name":"Etobicoke","objectid":2663266.0},{"geometry":{"type":"Point","coordinates":[-79.549357,43.62335]},"name":"FIRE STATION 432","address":"155 THE EAST MALL","x":300801.075,"y":4831268.329,"latitude":43.62335,"longitude":-79.549357,"ward_name":"Etobicoke-Lakeshore (5)","mun_name":"Etobicoke","objectid":2609714.0},{"geometry":{"type":"Point","coordinates":[-79.502941,43.628027]},"name":"FIRE STATION 433","address":"615 ROYAL YORK RD","x":304546.954,"y":4831786.882,"latitude":43.628027,"longitude":-79.502941,"ward_name":"Etobicoke-Lakeshore (5)","mun_name":"Etobicoke","objectid":1918334.0},{"geometry":{"type":"Point","coordinates":[-79.543992,43.602579]},"name":"FIRE STATION 434","address":"3 LUNNESS RD","x":301232.829,"y":4828960.534,"latitude":43.602579,"longitude":-79.543992,"ward_name":"Etobicoke-Lakeshore (6)","mun_name":"Etobicoke","objectid":1977909.0},{"geometry":{"type":"Point","coordinates":[-79.506973,43.601127]},"name":"FIRE STATION 435","address":"130 EIGHTH ST","x":304221.386,"y":4828798.407,"latitude":43.601127,"longitude":-79.506973,"ward_name":"Etobicoke-Lakeshore (6)","mun_name":"Etobicoke","objectid":2012378.0},{"geometry":{"type":"Point","coordinates":[-79.571923,43.694969]},"name":"FIRE STATION 441","address":"947 MARTIN GROVE RD","x":298986.916,"y":4839226.217,"latitude":43.694969,"longitude":-79.571923,"ward_name":"Etobicoke North (2)","mun_name":"Etobicoke","objectid":1959089.0},{"geometry":{"type":"Point","coordinates":[-79.512384,43.700599]},"name":"FIRE STATION 442","address":"2015 LAWRENCE AVE W","x":303785.997,"y":4839850.245,"latitude":43.700599,"longitude":-79.512384,"ward_name":"York South-Weston (11)","mun_name":"York","objectid":3234576.0},{"geometry":{"type":"Point","coordinates":[-79.538557,43.67808]},"name":"FIRE STATION 443","address":"1724 ISLINGTON AVE","x":301675.515,"y":4837348.214,"latitude":43.67808,"longitude":-79.538557,"ward_name":"Etobicoke Centre (4)","mun_name":"Etobicoke","objectid":3035181.0},{"geometry":{"type":"Point","coordinates":[-79.582699,43.657475]},"name":"FIRE STATION 444","address":"666 RENFORTH DR","x":298114.094,"y":4835061.631,"latitude":43.657475,"longitude":-79.582699,"ward_name":"Etobicoke Centre (3)","mun_name":"Etobicoke","objectid":2238015.0},{"geometry":{"type":"Point","coordinates":[-79.545106,43.649357]},"name":"FIRE STATION 445","address":"280 BURNHAMTHORPE RD","x":301145.64,"y":4834157.446,"latitude":43.649357,"longitude":-79.545106,"ward_name":"Etobicoke-Lakeshore (5)","mun_name":"Etobicoke","objectid":2544120.0},{"geometry":{"type":"Point","coordinates":[-79.393659,43.790136]},"name":"FIRE STATION 111","address":"3300 BAYVIEW AVE","x":313342.971,"y":4849801.689,"latitude":43.790136,"longitude":-79.393659,"ward_name":"Willowdale (24)","mun_name":"North York","objectid":3311708.0},{"geometry":{"type":"Point","coordinates":[-79.284094,43.720408]},"name":"FIRE STATION 222","address":"755 WARDEN AVE","x":322180.852,"y":4842072.337,"latitude":43.720408,"longitude":-79.284094,"ward_name":"Scarborough Southwest (35)","mun_name":"Scarborough","objectid":2449586.0},{"geometry":{"type":"Point","coordinates":[-79.233264,43.723965]},"name":"FIRE STATION 223","address":"116 DORSET RD","x":326275.035,"y":4842479.439,"latitude":43.723965,"longitude":-79.233264,"ward_name":"Scarborough Southwest (36)","mun_name":"Scarborough","objectid":2172861.0},{"geometry":{"type":"Point","coordinates":[-79.3166,43.695196]},"name":"FIRE STATION 224","address":"1313 WOODBINE AVE","x":319567.895,"y":4839265.158,"latitude":43.695196,"longitude":-79.3166,"ward_name":"Beaches-East York (31)","mun_name":"East York","objectid":2062647.0},{"geometry":{"type":"Point","coordinates":[-79.268498,43.695925]},"name":"FIRE STATION 225","address":"3600 DANFORTH AVE","x":323445.068,"y":4839355.79,"latitude":43.695925,"longitude":-79.268498,"ward_name":"Scarborough Southwest (36)","mun_name":"Scarborough","objectid":2642292.0},{"geometry":{"type":"Point","coordinates":[-79.299068,43.681932]},"name":"FIRE STATION 226","address":"87 MAIN ST","x":320984.635,"y":4837794.805,"latitude":43.681932,"longitude":-79.299068,"ward_name":"Beaches-East York (32)","mun_name":"former Toronto","objectid":2080935.0},{"geometry":{"type":"Point","coordinates":[-79.305041,43.669172]},"name":"FIRE STATION 227","address":"1904 QUEEN ST E","x":320506.38,"y":4836376.01,"latitude":43.669172,"longitude":-79.305041,"ward_name":"Beaches-East York (32)","mun_name":"former Toronto","objectid":2309211.0},{"geometry":{"type":"Point","coordinates":[-79.227791,43.764653]},"name":"FIRE STATION 231","address":"740 MARKHAM RD","x":326701.29,"y":4847000.985,"latitude":43.764653,"longitude":-79.227791,"ward_name":"Scarborough Centre (38)","mun_name":"Scarborough","objectid":2175731.0},{"geometry":{"type":"Point","coordinates":[-79.266854,43.754976]},"name":"FIRE STATION 232","address":"1550 MIDLAND AVE","x":323559.154,"y":4845916.35,"latitude":43.754976,"longitude":-79.266854,"ward_name":"Scarborough Centre (37)","mun_name":"Scarborough","objectid":1657015.0},{"geometry":{"type":"Point","coordinates":[-79.314523,43.744112]},"name":"FIRE STATION 233","address":"59 CURLEW DR","x":319723.203,"y":4844699.827,"latitude":43.744112,"longitude":-79.314523,"ward_name":"Don Valley East (34)","mun_name":"North York","objectid":2949111.0},{"geometry":{"type":"Point","coordinates":[-79.191525,43.761077]},"name":"FIRE STATION 234","address":"40 CORONATION DR","x":329622.628,"y":4846613.849,"latitude":43.761077,"longitude":-79.191525,"ward_name":"Scarborough East (43)","mun_name":"Scarborough","objectid":2004920.0},{"geometry":{"type":"Point","coordinates":[-79.314934,43.724253]},"name":"FIRE STATION 235","address":"200 BERMONDSEY RD","x":319694.733,"y":4842494.56,"latitude":43.724253,"longitude":-79.314934,"ward_name":"Don Valley East (34)","mun_name":"North York","objectid":3217085.0},{"geometry":{"type":"Point","coordinates":[-79.323806,43.814051]},"name":"FIRE STATION 241","address":"3325 WARDEN AVE","x":318959.194,"y":4852468.168,"latitude":43.814051,"longitude":-79.323806,"ward_name":"Scarborough-Agincourt (39)","mun_name":"Scarborough","objectid":3174616.0},{"geometry":{"type":"Point","coordinates":[-79.277259,43.806928]},"name":"FIRE STATION 242","address":"2733 BRIMLEY RD","x":322705.904,"y":4851685.836,"latitude":43.806928,"longitude":-79.277259,"ward_name":"Scarborough-Rouge River (41)","mun_name":"Scarborough","objectid":1932855.0},{"geometry":{"type":"Point","coordinates":[-79.262963,43.789146]},"name":"FIRE STATION 243","address":"4560 SHEPPARD AVE E","x":323861.695,"y":4849713.376,"latitude":43.789146,"longitude":-79.262963,"ward_name":"Scarborough-Rouge River (41)","mun_name":"Scarborough","objectid":2236216.0},{"geometry":{"type":"Point","coordinates":[-79.299119,43.781691]},"name":"FIRE STATION 244","address":"2340 BIRCHMOUNT RD","x":320953.874,"y":4848877.582,"latitude":43.781691,"longitude":-79.299119,"ward_name":"Scarborough-Agincourt (40)","mun_name":"Scarborough","objectid":2063805.0},{"geometry":{"type":"Point","coordinates":[-79.291522,43.7627]},"name":"FIRE STATION 245","address":"1600 BIRCHMOUNT RD","x":321570.615,"y":4846769.282,"latitude":43.7627,"longitude":-79.291522,"ward_name":"Scarborough Centre (37)","mun_name":"Scarborough","objectid":3093030.0},{"geometry":{"type":"Point","coordinates":[-79.393979,43.685959]},"name":"FIRE STATION 311","address":"20 BALMORAL AVE","x":313331.912,"y":4838228.134,"latitude":43.685959,"longitude":-79.393979,"ward_name":"St. Paul's (22)","mun_name":"former Toronto","objectid":1995083.0},{"geometry":{"type":"Point","coordinates":[-79.388924,43.671883]},"name":"FIRE STATION 312","address":"34 YORKVILLE AVE","x":313741.563,"y":4836664.905,"latitude":43.671883,"longitude":-79.388924,"ward_name":"Toronto Centre-Rosedale (27)","mun_name":"former Toronto","objectid":2224532.0},{"geometry":{"type":"Point","coordinates":[-79.375567,43.672104]},"name":"FIRE STATION 313","address":"441 BLOOR ST E","x":314818.555,"y":4836690.884,"latitude":43.672104,"longitude":-79.375567,"ward_name":"Toronto Centre-Rosedale (28)","mun_name":"former Toronto","objectid":3066514.0},{"geometry":{"type":"Point","coordinates":[-79.384665,43.663066]},"name":"FIRE STATION 314","address":"12 GROSVENOR ST","x":314086.313,"y":4835685.82,"latitude":43.663066,"longitude":-79.384665,"ward_name":"Toronto Centre-Rosedale (27)","mun_name":"former Toronto","objectid":1669763.0},{"geometry":{"type":"Point","coordinates":[-79.404785,43.656833]},"name":"FIRE STATION 315","address":"132 BELLEVUE AVE","x":312464.393,"y":4834991.263,"latitude":43.656833,"longitude":-79.404785,"ward_name":"Trinity-Spadina (20)","mun_name":"former Toronto","objectid":3000730.0},{"geometry":{"type":"Point","coordinates":[-79.364855,43.708718]},"name":"FIRE STATION 321","address":"231 MCRAE DR","x":315675.816,"y":4840760.007,"latitude":43.708718,"longitude":-79.364855,"ward_name":"Don Valley West (26)","mun_name":"East York","objectid":2479820.0},{"geometry":{"type":"Point","coordinates":[-79.342347,43.690995]},"name":"FIRE STATION 322","address":"256 COSBURN AVE","x":317493.43,"y":4838794.113,"latitude":43.690995,"longitude":-79.342347,"ward_name":"Toronto-Danforth (29)","mun_name":"East York","objectid":2455220.0},{"geometry":{"type":"Point","coordinates":[-79.334665,43.679551]},"name":"FIRE STATION 323","address":"153 CHATHAM AVE","x":318115.184,"y":4837524.013,"latitude":43.679551,"longitude":-79.334665,"ward_name":"Toronto-Danforth (30)","mun_name":"former Toronto","objectid":2004250.0},{"geometry":{"type":"Point","coordinates":[-79.343521,43.667775]},"name":"FIRE STATION 324","address":"840 GERRARD ST E","x":317403.601,"y":4836214.375,"latitude":43.667775,"longitude":-79.343521,"ward_name":"Toronto-Danforth (30)","mun_name":"former Toronto","objectid":1595244.0},{"geometry":{"type":"Point","coordinates":[-79.364857,43.659379]},"name":"FIRE STATION 325","address":"475 DUNDAS ST E","x":315684.482,"y":4835278.602,"latitude":43.659379,"longitude":-79.364857,"ward_name":"Toronto Centre-Rosedale (28)","mun_name":"former Toronto","objectid":3030229.0},{"geometry":{"type":"Point","coordinates":[-79.325011,43.661547]},"name":"FIRE STATION 326","address":"30 KNOX AVE","x":318897.842,"y":4835525.433,"latitude":43.661547,"longitude":-79.325011,"ward_name":"Beaches-East York (32)","mun_name":"former Toronto","objectid":3024003.0},{"geometry":{"type":"Point","coordinates":[-79.409777,43.647345]},"name":"FIRE STATION 331","address":"33 CLAREMONT ST","x":312062.94,"y":4833936.64,"latitude":43.647345,"longitude":-79.409777,"ward_name":"Trinity-Spadina (19)","mun_name":"former Toronto","objectid":1701571.0},{"geometry":{"type":"Point","coordinates":[-79.389567,43.648315]},"name":"FIRE STATION 332","address":"260 ADELAIDE ST W","x":313693.111,"y":4834046.473,"latitude":43.648315,"longitude":-79.389567,"ward_name":"Trinity-Spadina (20)","mun_name":"former Toronto","objectid":1558261.0},{"geometry":{"type":"Point","coordinates":[-79.366157,43.650529]},"name":"FIRE STATION 333","address":"207 FRONT ST E","x":315581.233,"y":4834295.276,"latitude":43.650529,"longitude":-79.366157,"ward_name":"Toronto Centre-Rosedale (28)","mun_name":"former Toronto","objectid":3119337.0},{"geometry":{"type":"Point","coordinates":[-79.388616,43.637699]},"name":"FIRE STATION 334 HARBOURFRONT","address":"339 QUEENS QUAY  W","x":313771.434,"y":4832867.105,"latitude":43.637699,"longitude":-79.388616,"ward_name":"Trinity-Spadina (20)","mun_name":"former Toronto","objectid":2991854.0},{"geometry":{"type":"Point","coordinates":[-79.359078,43.625409]},"name":"FIRE STATION 335","address":"235 CIBOLA AVE","x":316157.029,"y":4831505.52,"latitude":43.625409,"longitude":-79.359078,"ward_name":"Toronto Centre-Rosedale (28)","mun_name":"former Toronto","objectid":3311729.0},{"geometry":{"type":"Point","coordinates":[-79.441144,43.694529]},"name":"FIRE STATION 341","address":"555 OAKWOOD AVE","x":309528.788,"y":4839176.426,"latitude":43.694529,"longitude":-79.441144,"ward_name":"Eglinton-Lawrence (15)","mun_name":"York","objectid":1961768.0},{"geometry":{"type":"Point","coordinates":[-79.44863,43.679375]},"name":"FIRE STATION 342","address":"106 ASCOT AVE","x":308926.334,"y":4837492.456,"latitude":43.679375,"longitude":-79.44863,"ward_name":"Davenport (17)","mun_name":"former Toronto","objectid":1541526.0},{"geometry":{"type":"Point","coordinates":[-79.444286,43.776286]},"name":"FIRE STATION 112","address":"5700 BATHURST ST","x":309269.267,"y":4848259.985,"latitude":43.776286,"longitude":-79.444286,"ward_name":"York Centre (10)","mun_name":"North York","objectid":3311629.0},{"geometry":{"type":"Point","coordinates":[-79.350836,43.793187]},"name":"FIRE STATION 113","address":"700 SENECA HILL DR","x":316788.777,"y":4850145.909,"latitude":43.793187,"longitude":-79.350836,"ward_name":"Don Valley East (33)","mun_name":"North York","objectid":2788036.0},{"geometry":{"type":"Point","coordinates":[-79.415358,43.772644]},"name":"FIRE STATION 114","address":"12 CANTERBURY PL","x":311598.61,"y":4847856.472,"latitude":43.772644,"longitude":-79.415358,"ward_name":"Willowdale (23)","mun_name":"North York","objectid":3311726.0},{"geometry":{"type":"Point","coordinates":[-79.340689,43.774412]},"name":"FIRE STATION 115","address":"115 PARKWAY FOREST DR","x":317609.322,"y":4848061.67,"latitude":43.774412,"longitude":-79.340689,"ward_name":"Don Valley East (33)","mun_name":"North York","objectid":1783376.0},{"geometry":{"type":"Point","coordinates":[-79.365067,43.769155]},"name":"FIRE STATION 116","address":"255 ESTHER SHINER BLVD","x":315647.778,"y":4847474.127,"latitude":43.769155,"longitude":-79.365067,"ward_name":"Willowdale (24)","mun_name":"North York","objectid":2607109.0},{"geometry":{"type":"Point","coordinates":[-79.406784,43.748549]},"name":"FIRE STATION 121","address":"10 WILLIAM CARSON CRES","x":312291.814,"y":4845180.264,"latitude":43.748549,"longitude":-79.406784,"ward_name":"Don Valley West (25)","mun_name":"North York","objectid":1662173.0},{"geometry":{"type":"Point","coordinates":[-79.383729,43.748653]},"name":"FIRE STATION 122","address":"2545 BAYVIEW AVE","x":314148.535,"y":4845194.262,"latitude":43.748653,"longitude":-79.383729,"ward_name":"Don Valley West (25)","mun_name":"North York","objectid":3074276.0},{"geometry":{"type":"Point","coordinates":[-79.346729,43.745823]},"name":"FIRE STATION 123","address":"143 BOND AVE","x":317128.916,"y":4844884.591,"latitude":43.745823,"longitude":-79.346729,"ward_name":"Don Valley East (34)","mun_name":"North York","objectid":2108616.0},{"geometry":{"type":"Point","coordinates":[-79.349115,43.721144]},"name":"FIRE STATION 125","address":"1109 LESLIE ST","x":316941.699,"y":4842142.616,"latitude":43.721144,"longitude":-79.349115,"ward_name":"Don Valley West (25)","mun_name":"North York","objectid":2981001.0},{"geometry":{"type":"Point","coordinates":[-79.402161,43.726226]},"name":"FIRE STATION 131","address":"3135 YONGE ST","x":312667.085,"y":4842700.789,"latitude":43.726226,"longitude":-79.402161,"ward_name":"Don Valley West (25)","mun_name":"former Toronto","objectid":2119715.0},{"geometry":{"type":"Point","coordinates":[-79.428575,43.719807]},"name":"FIRE STATION 132","address":"476 LAWRENCE AVE W","x":310539.582,"y":4841985.486,"latitude":43.719807,"longitude":-79.428575,"ward_name":"Eglinton-Lawrence (16)","mun_name":"North York","objectid":1852933.0},{"geometry":{"type":"Point","coordinates":[-79.482188,43.707193]},"name":"FIRE STATION 133","address":"1505 LAWRENCE AVE W","x":306219.982,"y":4840581.919,"latitude":43.707193,"longitude":-79.482188,"ward_name":"York South-Weston (12)","mun_name":"North York","objectid":2829802.0},{"geometry":{"type":"Point","coordinates":[-79.399772,43.709665]},"name":"FIRE STATION 134","address":"16 MONTGOMERY AVE","x":312861.757,"y":4840861.295,"latitude":43.709665,"longitude":-79.399772,"ward_name":"Eglinton-Lawrence (16)","mun_name":"former Toronto","objectid":1662464.0},{"geometry":{"type":"Point","coordinates":[-79.416366,43.702763]},"name":"FIRE STATION 135","address":"641 EGLINTON AVE W","x":311525.268,"y":4840092.917,"latitude":43.702763,"longitude":-79.416366,"ward_name":"St. Paul's (22)","mun_name":"former Toronto","objectid":1665125.0},{"geometry":{"type":"Point","coordinates":[-79.492727,43.76683]},"name":"FIRE STATION 141","address":"4100 KEELE ST","x":305370.192,"y":4847207.091,"latitude":43.76683,"longitude":-79.492727,"ward_name":"York West (8)","mun_name":"North York","objectid":3020263.0},{"geometry":{"type":"Point","coordinates":[-79.514374,43.745991]},"name":"FIRE STATION 142","address":"2753 JANE ST","x":303626.926,"y":4844892.092,"latitude":43.745991,"longitude":-79.514374,"ward_name":"York Centre (9)","mun_name":"North York","objectid":2982185.0},{"geometry":{"type":"Point","coordinates":[-79.45973,43.750663]},"name":"FIRE STATION 143","address":"1009 SHEPPARD AVE W","x":308027.696,"y":4845411.741,"latitude":43.750663,"longitude":-79.45973,"ward_name":"York Centre (10)","mun_name":"North York","objectid":3083829.0},{"geometry":{"type":"Point","coordinates":[-79.460035,43.734764]},"name":"FIRE STATION 145","address":"20 BEFFORT RD","x":308003.882,"y":4843645.466,"latitude":43.734764,"longitude":-79.460035,"ward_name":"York Centre (9)","mun_name":"North York","objectid":3186765.0},{"geometry":{"type":"Point","coordinates":[-79.509779,43.723581]},"name":"FIRE STATION 146","address":"2220 JANE ST","x":303996.599,"y":4842402.43,"latitude":43.723581,"longitude":-79.509779,"ward_name":"York West (7)","mun_name":"North York","objectid":3072600.0},{"geometry":{"type":"Point","coordinates":[-79.242873,43.824001]},"name":"FIRE STATION 211","address":"900 TAPSCOTT RD","x":325466.636,"y":4853590.517,"latitude":43.824001,"longitude":-79.242873,"ward_name":"Scarborough-Rouge River (42)","mun_name":"Scarborough","objectid":1520443.0},{"geometry":{"type":"Point","coordinates":[-79.188623,43.804941]},"name":"FIRE STATION 212","address":"8500 SHEPPARD AVE E","x":329838.107,"y":4851487.882,"latitude":43.804941,"longitude":-79.188623,"ward_name":"Scarborough-Rouge River (42)","mun_name":"Scarborough","objectid":2303629.0},{"geometry":{"type":"Point","coordinates":[-79.225965,43.795415]},"name":"FIRE STATION 213","address":"7 LAPSLEY RD","x":326837.049,"y":4850419.039,"latitude":43.795415,"longitude":-79.225965,"ward_name":"Scarborough-Rouge River (42)","mun_name":"Scarborough","objectid":2458686.0},{"geometry":{"type":"Point","coordinates":[-79.163605,43.794219]},"name":"FIRE STATION 214","address":"745 MEADOWVALE RD","x":331855.873,"y":4850304.607,"latitude":43.794219,"longitude":-79.163605,"ward_name":"Scarborough East (44)","mun_name":"Scarborough","objectid":1567567.0},{"geometry":{"type":"Point","coordinates":[-79.148069,43.777401]},"name":"FIRE STATION 215","address":"5318 LAWRENCE AVE E","x":333114.022,"y":4848441.177,"latitude":43.777401,"longitude":-79.148069,"ward_name":"Scarborough East (44)","mun_name":"Scarborough","objectid":2250005.0},{"geometry":{"type":"Point","coordinates":[-79.255066,43.734799]},"name":"FIRE STATION 221","address":"2575 EGLINTON AVE E","x":324515.001,"y":4843677.541,"latitude":43.734799,"longitude":-79.255066,"ward_name":"Scarborough Southwest (35)","mun_name":"Scarborough","objectid":2048861.0}]