[{"geometry":{"type":"Point","coordinates":[-79.364983,43.649806]},"address":"230 The Esplanade","x":315676.054,"y":4834215.082,"longitude":-79.364983,"latitude":43.649806,"name":"St. Lawrence Community Recreation Centre","pfr_id":4231,"facilityid":517},{"geometry":{"type":"Point","coordinates":[-79.371262,43.800104]},"address":"6000 Leslie St","x":315143.779,"y":4850911.651,"longitude":-79.371262,"latitude":43.800104,"name":"Cummer Park Community Centre","pfr_id":4439,"facilityid":131},{"geometry":{"type":"Point","coordinates":[-79.552117,43.722236]},"address":"45 Golfdown Dr","x":300585.337,"y":4842254.301,"longitude":-79.552117,"latitude":43.722236,"name":"The Elms Community School","pfr_id":4457,"facilityid":1404},{"geometry":{"type":"Point","coordinates":[-79.439274,43.667324]},"address":"1260 Dufferin St","x":309681.683,"y":4836154.136,"longitude":-79.439274,"latitude":43.667324,"name":"Wallace-Emerson Community Centre","pfr_id":4175,"facilityid":570},{"geometry":{"type":"Point","coordinates":[-79.4514,43.675339]},"address":"1369 St Clair Ave W","x":308703.214,"y":4837044.02,"longitude":-79.4514,"latitude":43.675339,"name":"Joseph J. Piccininni Community Centre","pfr_id":1360,"facilityid":173},{"geometry":{"type":"Point","coordinates":[-79.3704,43.655396]},"address":"150 Sherbourne St","x":315238.113,"y":4834835.385,"longitude":-79.3704,"latitude":43.655396,"name":"John Innes Community Recreation Centre","pfr_id":4222,"facilityid":164},{"geometry":{"type":"Point","coordinates":[-79.404897,43.651794]},"address":"707 Dundas St W","x":312455.994,"y":4834431.455,"longitude":-79.404897,"latitude":43.651794,"name":"Scadding Court Community Centre","pfr_id":4228,"facilityid":591},{"geometry":{"type":"Point","coordinates":[-79.360961,43.660764]},"address":"640 Dundas St E","x":315998.27,"y":4835433.889,"longitude":-79.360961,"latitude":43.660764,"name":"Regent Park Aquatic Centre","pfr_id":2304,"facilityid":1168},{"geometry":{"type":"Point","coordinates":[-79.345333,43.660452]},"address":"870 Queen St E","x":317259.02,"y":4835400.54,"longitude":-79.345333,"latitude":43.660452,"name":"Jimmie Simpson Recreation Centre","pfr_id":4157,"facilityid":154},{"geometry":{"type":"Point","coordinates":[-79.433447,43.647353]},"address":"66 Sheridan Ave","x":310153.418,"y":4833935.817,"longitude":-79.433447,"latitude":43.647353,"name":"Mary McCormick Recreation Centre","pfr_id":4223,"facilityid":223},{"geometry":{"type":"Point","coordinates":[-79.349274,43.691793]},"address":"1081 1/2 Pape Ave","x":316934.898,"y":4838881.743,"longitude":-79.349274,"latitude":43.691793,"name":"East York Community Centre","pfr_id":4448,"facilityid":814},{"geometry":{"type":"Point","coordinates":[-79.522108,43.601144]},"address":"1 Faustina Dr","x":302999.547,"y":4828800.532,"longitude":-79.522108,"latitude":43.601144,"name":"Gus Ryder Pool And Health Club","pfr_id":4607,"facilityid":1687},{"geometry":{"type":"Point","coordinates":[-79.412896,43.767814]},"address":"5100 Yonge St","x":311797.327,"y":4847320.055,"longitude":-79.412896,"latitude":43.767814,"name":"Douglas Snow Aquatic Centre","pfr_id":2056,"facilityid":631}]