[{"geometry":{"type":"Point","coordinates":[-79.235111,43.77554]},"address":"1967 Ellesmere Rd","x":326108.065,"y":4848208.646,"longitude":-79.235111,"latitude":43.77554,"name":"Centennial Recreation Centre-Scarborough","pfr_id":4163,"facilityid":454},{"geometry":{"type":"Point","coordinates":[-79.547356,43.601905]},"address":"2 Orianna Dr","x":300961.238,"y":4828885.845,"longitude":-79.547356,"latitude":43.601905,"name":"Alderwood Pool","pfr_id":4476,"facilityid":1688},{"geometry":{"type":"Point","coordinates":[-79.3394,43.668062]},"address":"953 Gerrard St E","x":317735.887,"y":4836246.897,"longitude":-79.3394,"latitude":43.668062,"name":"Matty Eckler Recreation Centre","pfr_id":4156,"facilityid":431},{"geometry":{"type":"Point","coordinates":[-79.315116,43.676646]},"address":"1757 Gerrard St E","x":319691.888,"y":4837205.57,"longitude":-79.315116,"latitude":43.676646,"name":"Fairmount Park Community Centre","pfr_id":4450,"facilityid":617},{"geometry":{"type":"Point","coordinates":[-79.349274,43.691793]},"address":"1081 1/2 Pape Ave","x":316934.898,"y":4838881.743,"longitude":-79.349274,"latitude":43.691793,"name":"East York Community Centre","pfr_id":4448,"facilityid":814},{"geometry":{"type":"Point","coordinates":[-79.401316,43.684922]},"address":"454 Avenue Rd","x":312740.597,"y":4838112.116,"longitude":-79.401316,"latitude":43.684922,"name":"Brown Community Centre","pfr_id":4414,"facilityid":97},{"geometry":{"type":"Point","coordinates":[-79.581194,43.739293]},"address":"1485 Albion Rd","x":298244.482,"y":4844151.185,"longitude":-79.581194,"latitude":43.739293,"name":"Albion Pool And Health Club","pfr_id":4481,"facilityid":1680},{"geometry":{"type":"Point","coordinates":[-79.495475,43.717136]},"address":"155 Falstaff Ave","x":305149.103,"y":4841686.352,"longitude":-79.495475,"latitude":43.717136,"name":"Nelson A. Boylen Collegiate Institute","pfr_id":4491,"facilityid":14},{"geometry":{"type":"Point","coordinates":[-79.60684,43.729167]},"address":"205 Humber College Blvd","x":296177.016,"y":4843029.41,"longitude":-79.60684,"latitude":43.729167,"name":"Humber Community Pool","pfr_id":4366,"facilityid":1511},{"geometry":{"type":"Point","coordinates":[-79.509425,43.703825]},"address":"100 Pine St","x":304024.852,"y":4840207.646,"longitude":-79.509425,"latitude":43.703825,"name":"Weston Collegiate Institute","pfr_id":4462,"facilityid":178},{"geometry":{"type":"Point","coordinates":[-79.552117,43.722236]},"address":"45 Golfdown Dr","x":300585.337,"y":4842254.301,"longitude":-79.552117,"latitude":43.722236,"name":"The Elms Community School","pfr_id":4457,"facilityid":1404},{"geometry":{"type":"Point","coordinates":[-79.44698,43.781164]},"address":"140 Antibes Dr","x":309052.338,"y":4848800.812,"longitude":-79.44698,"latitude":43.781164,"name":"Antibes Community Centre","pfr_id":4468,"facilityid":124},{"geometry":{"type":"Point","coordinates":[-79.142241,43.779311]},"address":"5400 Lawrence Ave E","x":333582.205,"y":4848655.383,"longitude":-79.142241,"latitude":43.779311,"name":"Sir Oliver Mowat Collegiate Institute","pfr_id":4369,"facilityid":1395},{"geometry":{"type":"Point","coordinates":[-79.360961,43.660764]},"address":"640 Dundas St E","x":315998.27,"y":4835433.889,"longitude":-79.360961,"latitude":43.660764,"name":"Regent Park Aquatic Centre","pfr_id":2304,"facilityid":1168},{"geometry":{"type":"Point","coordinates":[-79.345333,43.660452]},"address":"870 Queen St E","x":317259.02,"y":4835400.54,"longitude":-79.345333,"latitude":43.660452,"name":"Jimmie Simpson Recreation Centre","pfr_id":4157,"facilityid":154},{"geometry":{"type":"Point","coordinates":[-79.415374,43.646435]},"address":"155 Crawford St","x":311611.274,"y":4833836.093,"longitude":-79.415374,"latitude":43.646435,"name":"Trinity Community Recreation Centre","pfr_id":4174,"facilityid":550},{"geometry":{"type":"Point","coordinates":[-79.349941,43.677146]},"address":"816 Logan Ave","x":316884.084,"y":4837254.462,"longitude":-79.349941,"latitude":43.677146,"name":"Frankland Community Centre","pfr_id":4451,"facilityid":118},{"geometry":{"type":"Point","coordinates":[-79.436706,43.69103]},"address":"529 Vaughan Rd","x":309886.802,"y":4838787.996,"longitude":-79.436706,"latitude":43.69103,"name":"Vaughan Road Academy","pfr_id":4341,"facilityid":166},{"geometry":{"type":"Point","coordinates":[-79.416499,43.679206]},"address":"1339 Bathurst St","x":311517.098,"y":4837475.754,"longitude":-79.416499,"latitude":43.679206,"name":"Hillcrest Community Centre","pfr_id":4153,"facilityid":137},{"geometry":{"type":"Point","coordinates":[-79.364983,43.649806]},"address":"230 The Esplanade","x":315676.054,"y":4834215.082,"longitude":-79.364983,"latitude":43.649806,"name":"St. Lawrence Community Recreation Centre","pfr_id":4231,"facilityid":517},{"geometry":{"type":"Point","coordinates":[-79.390864,43.651058]},"address":"15 Stephanie St","x":313588.078,"y":4834351.082,"longitude":-79.390864,"latitude":43.651058,"name":"Harrison Pool","pfr_id":4453,"facilityid":130},{"geometry":{"type":"Point","coordinates":[-79.489815,43.663541]},"address":"569 Jane St","x":305605.793,"y":4835732.243,"longitude":-79.489815,"latitude":43.663541,"name":"Runnymede Collegiate Institute","pfr_id":4456,"facilityid":174},{"geometry":{"type":"Point","coordinates":[-79.522108,43.601144]},"address":"1 Faustina Dr","x":302999.547,"y":4828800.532,"longitude":-79.522108,"latitude":43.601144,"name":"Gus Ryder Pool And Health Club","pfr_id":4607,"facilityid":1687},{"geometry":{"type":"Point","coordinates":[-79.476984,43.690078]},"address":"2694 Eglinton Ave W","x":306639.85,"y":4838680.5,"longitude":-79.476984,"latitude":43.690078,"name":"Centennial Recreation Centre - Etobicoke","pfr_id":4373,"facilityid":35},{"geometry":{"type":"Point","coordinates":[-79.539557,43.748723]},"address":"3395 Weston Rd","x":301598.551,"y":4845197.192,"longitude":-79.539557,"latitude":43.748723,"name":"Emery Collegiate Institute","pfr_id":4353,"facilityid":599},{"geometry":{"type":"Point","coordinates":[-79.305356,43.707878]},"address":"2800 St Clair Ave E","x":320470.975,"y":4840676.123,"longitude":-79.305356,"latitude":43.707878,"name":"Gordon A Brown Middle School","pfr_id":4452,"facilityid":741},{"geometry":{"type":"Point","coordinates":[-79.371262,43.800104]},"address":"6000 Leslie St","x":315143.779,"y":4850911.651,"longitude":-79.371262,"latitude":43.800104,"name":"Cummer Park Community Centre","pfr_id":4439,"facilityid":131},{"geometry":{"type":"Point","coordinates":[-79.27341,43.809023]},"address":"1550 Sandhurst Crcl","x":323015.01,"y":4851919.363,"longitude":-79.27341,"latitude":43.809023,"name":"Albert Campbell Collegiate Institute","pfr_id":4220,"facilityid":777},{"geometry":{"type":"Point","coordinates":[-79.477119,43.644112]},"address":"15 Waller Ave","x":306630.38,"y":4833574.02,"longitude":-79.477119,"latitude":43.644112,"name":"Swansea Community Recreation Centre","pfr_id":4466,"facilityid":537},{"geometry":{"type":"Point","coordinates":[-79.439274,43.667324]},"address":"1260 Dufferin St","x":309681.683,"y":4836154.136,"longitude":-79.439274,"latitude":43.667324,"name":"Wallace-Emerson Community Centre","pfr_id":4175,"facilityid":570},{"geometry":{"type":"Point","coordinates":[-79.4514,43.675339]},"address":"1369 St Clair Ave W","x":308703.214,"y":4837044.02,"longitude":-79.4514,"latitude":43.675339,"name":"Joseph J. Piccininni Community Centre","pfr_id":1360,"facilityid":173},{"geometry":{"type":"Point","coordinates":[-79.321569,43.686232]},"address":"455 Glebeholme Blvd","x":319169.542,"y":4838268.441,"longitude":-79.321569,"latitude":43.686232,"name":"Earl Beatty Community Centre","pfr_id":4447,"facilityid":109},{"geometry":{"type":"Point","coordinates":[-79.300181,43.687354]},"address":"245 Main St","x":320893.477,"y":4838396.965,"longitude":-79.300181,"latitude":43.687354,"name":"Main Square Community Centre","pfr_id":4155,"facilityid":199},{"geometry":{"type":"Point","coordinates":[-79.322842,43.665958]},"address":"56 Woodfield Rd","x":319071.708,"y":4836015.854,"longitude":-79.322842,"latitude":43.665958,"name":"S.H. Armstrong Community Centre","pfr_id":4230,"facilityid":497},{"geometry":{"type":"Point","coordinates":[-79.263111,43.695633]},"address":"93 Birchmount Rd","x":323879.352,"y":4839324.488,"longitude":-79.263111,"latitude":43.695633,"name":"Birchmount Community Centre","pfr_id":4443,"facilityid":165},{"geometry":{"type":"Point","coordinates":[-79.404897,43.651794]},"address":"707 Dundas St W","x":312455.994,"y":4834431.455,"longitude":-79.404897,"latitude":43.651794,"name":"Scadding Court Community Centre","pfr_id":4228,"facilityid":591},{"geometry":{"type":"Point","coordinates":[-79.516333,43.634314]},"address":"105 Norseman St","x":303466.404,"y":4832485.423,"longitude":-79.516333,"latitude":43.634314,"name":"Norseman Community School And Pool","pfr_id":4510,"facilityid":1420},{"geometry":{"type":"Point","coordinates":[-79.437467,43.643404]},"address":"75 Lansdowne Ave","x":309829.411,"y":4833496.928,"longitude":-79.437467,"latitude":43.643404,"name":"Parkdale Community Recreation Centre","pfr_id":4226,"facilityid":445},{"geometry":{"type":"Point","coordinates":[-79.433447,43.647353]},"address":"66 Sheridan Ave","x":310153.418,"y":4833935.817,"longitude":-79.433447,"latitude":43.647353,"name":"Mary McCormick Recreation Centre","pfr_id":4223,"facilityid":223},{"geometry":{"type":"Point","coordinates":[-79.311696,43.695405]},"address":"271 Gledhill Ave","x":319963.178,"y":4839289.255,"longitude":-79.311696,"latitude":43.695405,"name":"DA Morrison Junior High School","pfr_id":4415,"facilityid":1303},{"geometry":{"type":"Point","coordinates":[-79.306799,43.746168]},"address":"1176 Pharmacy Ave","x":320344.841,"y":4844929.661,"longitude":-79.306799,"latitude":43.746168,"name":"Wexford Collegiate Institute","pfr_id":4171,"facilityid":652},{"geometry":{"type":"Point","coordinates":[-79.276293,43.788414]},"address":"31 Glen Watford Dr","x":322789.117,"y":4849629.201,"longitude":-79.276293,"latitude":43.788414,"name":"Agincourt Recreation Centre","pfr_id":4219,"facilityid":323},{"geometry":{"type":"Point","coordinates":[-79.225402,43.803343]},"address":"150 Tapscott Rd","x":326879.485,"y":4851299.904,"longitude":-79.225402,"latitude":43.803343,"name":"Lester B. Pearson Collegiate Institute","pfr_id":4180,"facilityid":1344},{"geometry":{"type":"Point","coordinates":[-79.29881,43.67394]},"address":"6 Williamson Rd","x":321007.596,"y":4836906.93,"longitude":-79.29881,"latitude":43.67394,"name":"Beaches Recreation Centre","pfr_id":4412,"facilityid":80},{"geometry":{"type":"Point","coordinates":[-79.331691,43.717949]},"address":"29 St Dennis Dr","x":318346.4,"y":4841790.39,"longitude":-79.331691,"latitude":43.717949,"name":"Dennis R.Timbrell Resource Centre","pfr_id":4511,"facilityid":707},{"geometry":{"type":"Point","coordinates":[-79.412896,43.767814]},"address":"5100 Yonge St","x":311797.327,"y":4847320.055,"longitude":-79.412896,"latitude":43.767814,"name":"Douglas Snow Aquatic Centre","pfr_id":2056,"facilityid":631}]